{"stops":{"A44":{"id":"A44","name":"Clinton-Washington Avs","lat":40.683263,"lon":-73.965838,"location_type":null,"parent_station":"A44","borough":"brooklyn","daytime_routes":["C"]},"721":{"id":"721","name":"Vernon Blvd-Jackson Av","lat":40.742626,"lon":-73.953581,"location_type":null,"parent_station":"721","borough":"queens","daytime_routes":["7"]},"F34":{"id":"F34","name":"Avenue P","lat":40.608944,"lon":-73.973022,"location_type":null,"parent_station":"F34","borough":"brooklyn","daytime_routes":["F"]},"624":{"id":"624","name":"103 St","lat":40.7906,"lon":-73.947478,"location_type":null,"parent_station":"624","borough":"manhattan","daytime_routes":["6"]},"B19":{"id":"B19","name":"18 Av","lat":40.607954,"lon":-74.001736,"location_type":null,"parent_station":"B19","borough":"brooklyn","daytime_routes":["D"]},"627":{"id":"627","name":"77 St","lat":40.77362,"lon":-73.959874,"location_type":null,"parent_station":"627","borough":"manhattan","daytime_routes":["6"]},"F02":{"id":"F02","name":"169 St","lat":40.71047,"lon":-73.793604,"location_type":null,"parent_station":"F02","borough":"queens","daytime_routes":["F"]},"603":{"id":"603","name":"Middletown Rd","lat":40.843863,"lon":-73.836322,"location_type":null,"parent_station":"603","borough":"bronx","daytime_routes":["6"]},"117":{"id":"117","name":"116 St-Columbia University","lat":40.807722,"lon":-73.96411,"location_type":null,"parent_station":"117","borough":"manhattan","daytime_routes":["1"]},"D40":{"id":"D40","name":"Brighton Beach","lat":40.577621,"lon":-73.961376,"location_type":null,"parent_station":"D40","borough":"brooklyn","daytime_routes":["Q","B"]},"133":{"id":"133","name":"Christopher St-Stonewall","lat":40.733422,"lon":-74.002906,"location_type":null,"parent_station":"133","borough":"manhattan","daytime_routes":["1"]},"D01":{"id":"D01","name":"Norwood-205 St","lat":40.874811,"lon":-73.878855,"location_type":null,"parent_station":"D01","borough":"bronx","daytime_routes":["D"]},"D04":{"id":"D04","name":"Kingsbridge Rd","lat":40.866978,"lon":-73.893509,"location_type":null,"parent_station":"D04","borough":"bronx","daytime_routes":["B","D"]},"G09":{"id":"G09","name":"67 Av","lat":40.726523,"lon":-73.852719,"location_type":null,"parent_station":"G09","borough":"queens","daytime_routes":["M","R"]},"J20":{"id":"J20","name":"Crescent St","lat":40.683194,"lon":-73.873785,"location_type":null,"parent_station":"J20","borough":"brooklyn","daytime_routes":["J","Z"]},"125":{"id":"125","name":"59 St-Columbus Circle","lat":40.768247,"lon":-73.981929,"location_type":null,"parent_station":"125","borough":"manhattan","daytime_routes":["1"]},"613":{"id":"613","name":"Hunts Point Av","lat":40.820948,"lon":-73.890549,"location_type":null,"parent_station":"613","borough":"bronx","daytime_routes":["6"]},"Q01":{"id":"Q01","name":"Canal St","lat":40.718383,"lon":-74.00046,"location_type":null,"parent_station":"Q01","borough":"manhattan","daytime_routes":["Q","N"]},"G34":{"id":"G34","name":"Classon Av","lat":40.688873,"lon":-73.96007,"location_type":null,"parent_station":"G34","borough":"brooklyn","daytime_routes":["G"]},"A34":{"id":"A34","name":"Canal St","lat":40.720824,"lon":-74.005229,"location_type":null,"parent_station":"A34","borough":"manhattan","daytime_routes":["C","A","E"]},"A46":{"id":"A46","name":"Nostrand Av","lat":40.680438,"lon":-73.950426,"location_type":null,"parent_station":"A46","borough":"brooklyn","daytime_routes":["C","A"]},"119":{"id":"119","name":"103 St","lat":40.799446,"lon":-73.968379,"location_type":null,"parent_station":"119","borough":"manhattan","daytime_routes":["1"]},"209":{"id":"209","name":"Burke Av","lat":40.871356,"lon":-73.867164,"location_type":null,"parent_station":"209","borough":"bronx","daytime_routes":["2","5"]},"D11":{"id":"D11","name":"161 St-Yankee Stadium","lat":40.827905,"lon":-73.925651,"location_type":null,"parent_station":"D11","borough":"bronx","daytime_routes":["B","D"]},"L24":{"id":"L24","name":"Atlantic Av","lat":40.675345,"lon":-73.903097,"location_type":null,"parent_station":"L24","borough":"brooklyn","daytime_routes":["L"]},"R28":{"id":"R28","name":"Court St","lat":40.6941,"lon":-73.991777,"location_type":null,"parent_station":"R28","borough":"brooklyn","daytime_routes":["R"]},"232":{"id":"232","name":"Borough Hall","lat":40.693219,"lon":-73.989998,"location_type":null,"parent_station":"232","borough":"brooklyn","daytime_routes":["2","3"]},"H15":{"id":"H15","name":"Rockaway Park-Beach 116 St","lat":40.580903,"lon":-73.835592,"location_type":null,"parent_station":"H15","borough":"queens","daytime_routes":["A","Sr"]},"A27":{"id":"A27","name":"42 St-Port Authority Bus Terminal","lat":40.757308,"lon":-73.989735,"location_type":null,"parent_station":"A27","borough":"manhattan","daytime_routes":["C","A","E"]},"638":{"id":"638","name":"Spring St","lat":40.722301,"lon":-73.997141,"location_type":null,"parent_station":"638","borough":"manhattan","daytime_routes":["6"]},"610":{"id":"610","name":"Morrison Av-Soundview","lat":40.829521,"lon":-73.874516,"location_type":null,"parent_station":"610","borough":"bronx","daytime_routes":["6"]},"H01":{"id":"H01","name":"Aqueduct Racetrack","lat":40.672097,"lon":-73.835919,"location_type":null,"parent_station":"H01","borough":"queens","daytime_routes":["A"]},"230":{"id":"230","name":"Wall St","lat":40.706821,"lon":-74.0091,"location_type":null,"parent_station":"230","borough":"manhattan","daytime_routes":["2","3"]},"F12":{"id":"F12","name":"5 Av/53 St","lat":40.760167,"lon":-73.975224,"location_type":null,"parent_station":"F12","borough":"manhattan","daytime_routes":["F","E"]},"J23":{"id":"J23","name":"Van Siclen Av","lat":40.678024,"lon":-73.891688,"location_type":null,"parent_station":"J23","borough":"brooklyn","daytime_routes":["J","Z"]},"720":{"id":"720","name":"Hunters Point Av","lat":40.742216,"lon":-73.948916,"location_type":null,"parent_station":"720","borough":"queens","daytime_routes":["7"]},"414":{"id":"414","name":"161 St-Yankee Stadium","lat":40.827994,"lon":-73.925831,"location_type":null,"parent_station":"414","borough":"bronx","daytime_routes":["4"]},"S24":{"id":"S24","name":"Jefferson Av","lat":40.583591,"lon":-74.103338,"location_type":null,"parent_station":"S24","borough":"staten_island","daytime_routes":["Si"]},"D19":{"id":"D19","name":"14 St","lat":40.738228,"lon":-73.996209,"location_type":null,"parent_station":"D19","borough":"manhattan","daytime_routes":["M","F"]},"J16":{"id":"J16","name":"85 St-Forest Pkwy","lat":40.692435,"lon":-73.86001,"location_type":null,"parent_station":"J16","borough":"queens","daytime_routes":["J"]},"S16":{"id":"S16","name":"Huguenot","lat":40.533674,"lon":-74.191794,"location_type":null,"parent_station":"S16","borough":"staten_island","daytime_routes":["Si"]},"S30":{"id":"S30","name":"Tompkinsville","lat":40.636949,"lon":-74.074835,"location_type":null,"parent_station":"S30","borough":"staten_island","daytime_routes":["Si"]},"618":{"id":"618","name":"Brook Av","lat":40.807566,"lon":-73.91924,"location_type":null,"parent_station":"618","borough":"bronx","daytime_routes":["6"]},"231":{"id":"231","name":"Clark St","lat":40.697466,"lon":-73.993086,"location_type":null,"parent_station":"231","borough":"brooklyn","daytime_routes":["2","3"]},"F04":{"id":"F04","name":"Sutphin Blvd","lat":40.70546,"lon":-73.810708,"location_type":null,"parent_station":"F04","borough":"queens","daytime_routes":["F"]},"R15":{"id":"R15","name":"49 St","lat":40.759901,"lon":-73.984139,"location_type":null,"parent_station":"R15","borough":"manhattan","daytime_routes":["R","W","N"]},"M21":{"id":"M21","name":"Chambers St","lat":40.713243,"lon":-74.003401,"location_type":null,"parent_station":"M21","borough":"manhattan","daytime_routes":["J","Z"]},"R36":{"id":"R36","name":"36 St","lat":40.655144,"lon":-74.003549,"location_type":null,"parent_station":"R36","borough":"brooklyn","daytime_routes":["R","D","N"]},"L19":{"id":"L19","name":"Halsey St","lat":40.695602,"lon":-73.904084,"location_type":null,"parent_station":"L19","borough":"queens","daytime_routes":["L"]},"G35":{"id":"G35","name":"Clinton-Washington Avs","lat":40.688089,"lon":-73.966839,"location_type":null,"parent_station":"G35","borough":"brooklyn","daytime_routes":["G"]},"246":{"id":"246","name":"Newkirk Av-Little Haiti","lat":40.639967,"lon":-73.948411,"location_type":null,"parent_station":"246","borough":"brooklyn","daytime_routes":["2","5"]},"109":{"id":"109","name":"Dyckman St","lat":40.860531,"lon":-73.925536,"location_type":null,"parent_station":"109","borough":"manhattan","daytime_routes":["1"]},"724":{"id":"724","name":"5 Av","lat":40.753821,"lon":-73.981963,"location_type":null,"parent_station":"724","borough":"manhattan","daytime_routes":["7"]},"A19":{"id":"A19","name":"96 St","lat":40.791642,"lon":-73.964696,"location_type":null,"parent_station":"A19","borough":"manhattan","daytime_routes":["C","B"]},"A28":{"id":"A28","name":"34 St-Penn Station","lat":40.752287,"lon":-73.993391,"location_type":null,"parent_station":"A28","borough":"manhattan","daytime_routes":["C","A","E"]},"N02":{"id":"N02","name":"8 Av","lat":40.635064,"lon":-74.011719,"location_type":null,"parent_station":"N02","borough":"brooklyn","daytime_routes":["N"]},"R20":{"id":"R20","name":"14 St-Union Sq","lat":40.735736,"lon":-73.990568,"location_type":null,"parent_station":"R20","borough":"manhattan","daytime_routes":["Q","R","W","N"]},"220":{"id":"220","name":"Jackson Av","lat":40.81649,"lon":-73.907807,"location_type":null,"parent_station":"220","borough":"bronx","daytime_routes":["2","5"]},"A31":{"id":"A31","name":"14 St","lat":40.740893,"lon":-74.00169,"location_type":null,"parent_station":"A31","borough":"manhattan","daytime_routes":["C","A","E"]},"257":{"id":"257","name":"New Lots Av","lat":40.666235,"lon":-73.884079,"location_type":null,"parent_station":"257","borough":"brooklyn","daytime_routes":["3"]},"A49":{"id":"A49","name":"Ralph Av","lat":40.678822,"lon":-73.920786,"location_type":null,"parent_station":"A49","borough":"brooklyn","daytime_routes":["C"]},"636":{"id":"636","name":"Astor Pl","lat":40.730054,"lon":-73.99107,"location_type":null,"parent_station":"636","borough":"manhattan","daytime_routes":["6"]},"J22":{"id":"J22","name":"Cleveland St","lat":40.679947,"lon":-73.884639,"location_type":null,"parent_station":"J22","borough":"brooklyn","daytime_routes":["J"]},"204":{"id":"204","name":"Nereid Av","lat":40.898379,"lon":-73.854376,"location_type":null,"parent_station":"204","borough":"bronx","daytime_routes":["2","5"]},"A40":{"id":"A40","name":"High St","lat":40.699337,"lon":-73.990531,"location_type":null,"parent_station":"A40","borough":"brooklyn","daytime_routes":["C","A"]},"614":{"id":"614","name":"Longwood Av","lat":40.816104,"lon":-73.896435,"location_type":null,"parent_station":"614","borough":"bronx","daytime_routes":["6"]},"N05":{"id":"N05","name":"18 Av","lat":40.620671,"lon":-73.990414,"location_type":null,"parent_station":"N05","borough":"brooklyn","daytime_routes":["N"]},"L28":{"id":"L28","name":"East 105 St","lat":40.650573,"lon":-73.899485,"location_type":null,"parent_station":"L28","borough":"brooklyn","daytime_routes":["L"]},"B08":{"id":"B08","name":"Lexington Av/63 St","lat":40.764629,"lon":-73.966113,"location_type":null,"parent_station":"B08","borough":"manhattan","daytime_routes":["Q","M"]},"221":{"id":"221","name":"3 Av-149 St","lat":40.816109,"lon":-73.917757,"location_type":null,"parent_station":"221","borough":"bronx","daytime_routes":["2","5"]},"206":{"id":"206","name":"225 St","lat":40.888022,"lon":-73.860341,"location_type":null,"parent_station":"206","borough":"bronx","daytime_routes":["2","5"]},"D24":{"id":"D24","name":"Atlantic Av-Barclays Ctr","lat":40.68446,"lon":-73.97689,"location_type":null,"parent_station":"D24","borough":"brooklyn","daytime_routes":["Q","B"]},"408":{"id":"408","name":"183 St","lat":40.858407,"lon":-73.903879,"location_type":null,"parent_station":"408","borough":"bronx","daytime_routes":["4"]},"S01":{"id":"S01","name":"Franklin Av","lat":40.680596,"lon":-73.955827,"location_type":null,"parent_station":"S01","borough":"brooklyn","daytime_routes":["Sf"]},"L13":{"id":"L13","name":"Montrose Av","lat":40.707739,"lon":-73.93985,"location_type":null,"parent_station":"L13","borough":"brooklyn","daytime_routes":["L"]},"718":{"id":"718","name":"Queensboro Plaza","lat":40.750582,"lon":-73.940202,"location_type":null,"parent_station":"718","borough":"queens","daytime_routes":["7"]},"G18":{"id":"G18","name":"46 St","lat":40.756312,"lon":-73.913333,"location_type":null,"parent_station":"G18","borough":"queens","daytime_routes":["M","R"]},"L25":{"id":"L25","name":"Sutter Av","lat":40.669367,"lon":-73.901975,"location_type":null,"parent_station":"L25","borough":"brooklyn","daytime_routes":["L"]},"A52":{"id":"A52","name":"Liberty Av","lat":40.674542,"lon":-73.896548,"location_type":null,"parent_station":"A52","borough":"brooklyn","daytime_routes":["C"]},"A25":{"id":"A25","name":"50 St","lat":40.762456,"lon":-73.985984,"location_type":null,"parent_station":"A25","borough":"manhattan","daytime_routes":["C","E"]},"112":{"id":"112","name":"168 St-Washington Hts","lat":40.840556,"lon":-73.940133,"location_type":null,"parent_station":"112","borough":"manhattan","daytime_routes":["1"]},"D15":{"id":"D15","name":"47-50 Sts-Rockefeller Ctr","lat":40.758663,"lon":-73.981329,"location_type":null,"parent_station":"D15","borough":"manhattan","daytime_routes":["M","F","B","D"]},"218":{"id":"218","name":"Intervale Av","lat":40.822181,"lon":-73.896736,"location_type":null,"parent_station":"218","borough":"bronx","daytime_routes":["2","5"]},"M23":{"id":"M23","name":"Broad St","lat":40.706476,"lon":-74.011056,"location_type":null,"parent_station":"M23","borough":"manhattan","daytime_routes":["J","Z"]},"131":{"id":"131","name":"18 St","lat":40.74104,"lon":-73.997871,"location_type":null,"parent_station":"131","borough":"manhattan","daytime_routes":["1"]},"129":{"id":"129","name":"28 St","lat":40.747215,"lon":-73.993365,"location_type":null,"parent_station":"129","borough":"manhattan","daytime_routes":["1"]},"L01":{"id":"L01","name":"8 Av","lat":40.739777,"lon":-74.002578,"location_type":null,"parent_station":"L01","borough":"manhattan","daytime_routes":["L"]},"B15":{"id":"B15","name":"55 St","lat":40.631435,"lon":-73.995476,"location_type":null,"parent_station":"B15","borough":"brooklyn","daytime_routes":["D"]},"A18":{"id":"A18","name":"103 St","lat":40.796092,"lon":-73.961454,"location_type":null,"parent_station":"A18","borough":"manhattan","daytime_routes":["C","B"]},"244":{"id":"244","name":"Church Av","lat":40.650843,"lon":-73.949575,"location_type":null,"parent_station":"244","borough":"brooklyn","daytime_routes":["2","5"]},"G29":{"id":"G29","name":"Metropolitan Av","lat":40.712792,"lon":-73.951418,"location_type":null,"parent_station":"G29","borough":"brooklyn","daytime_routes":["G"]},"R09":{"id":"R09","name":"Queensboro Plaza","lat":40.750582,"lon":-73.940202,"location_type":null,"parent_station":"R09","borough":"queens","daytime_routes":["W","N"]},"A10":{"id":"A10","name":"163 St-Amsterdam Av","lat":40.836013,"lon":-73.939892,"location_type":null,"parent_station":"A10","borough":"manhattan","daytime_routes":["C"]},"J12":{"id":"J12","name":"121 St","lat":40.700492,"lon":-73.828294,"location_type":null,"parent_station":"J12","borough":"queens","daytime_routes":["J","Z"]},"243":{"id":"243","name":"Winthrop St","lat":40.656652,"lon":-73.9502,"location_type":null,"parent_station":"243","borough":"brooklyn","daytime_routes":["2","5"]},"409":{"id":"409","name":"Burnside Av","lat":40.853453,"lon":-73.907684,"location_type":null,"parent_station":"409","borough":"bronx","daytime_routes":["4"]},"J31":{"id":"J31","name":"Kosciuszko St","lat":40.693342,"lon":-73.928814,"location_type":null,"parent_station":"J31","borough":"brooklyn","daytime_routes":["J"]},"D37":{"id":"D37","name":"Avenue U","lat":40.5993,"lon":-73.955929,"location_type":null,"parent_station":"D37","borough":"brooklyn","daytime_routes":["Q"]},"S17":{"id":"S17","name":"Annadale","lat":40.54046,"lon":-74.178217,"location_type":null,"parent_station":"S17","borough":"staten_island","daytime_routes":["Si"]},"505":{"id":"505","name":"Morris Park","lat":40.854364,"lon":-73.860495,"location_type":null,"parent_station":"505","borough":"bronx","daytime_routes":["5"]},"630":{"id":"630","name":"51 St","lat":40.757107,"lon":-73.97192,"location_type":null,"parent_station":"630","borough":"manhattan","daytime_routes":["6"]},"D10":{"id":"D10","name":"167 St","lat":40.833771,"lon":-73.91844,"location_type":null,"parent_station":"D10","borough":"bronx","daytime_routes":["B","D"]},"229":{"id":"229","name":"Fulton St","lat":40.709416,"lon":-74.006571,"location_type":null,"parent_station":"229","borough":"manhattan","daytime_routes":["2","3"]},"121":{"id":"121","name":"86 St","lat":40.788644,"lon":-73.976218,"location_type":null,"parent_station":"121","borough":"manhattan","daytime_routes":["1"]},"219":{"id":"219","name":"Prospect Av","lat":40.819585,"lon":-73.90177,"location_type":null,"parent_station":"219","borough":"bronx","daytime_routes":["2","5"]},"122":{"id":"122","name":"79 St","lat":40.783934,"lon":-73.979917,"location_type":null,"parent_station":"122","borough":"manhattan","daytime_routes":["1"]},"640":{"id":"640","name":"Brooklyn Bridge-City Hall","lat":40.713065,"lon":-74.004131,"location_type":null,"parent_station":"640","borough":"manhattan","daytime_routes":["4","5","6"]},"H12":{"id":"H12","name":"Beach 90 St","lat":40.588034,"lon":-73.813641,"location_type":null,"parent_station":"H12","borough":"queens","daytime_routes":["A","Sr"]},"G22":{"id":"G22","name":"Court Sq","lat":40.746554,"lon":-73.943832,"location_type":null,"parent_station":"G22","borough":"queens","daytime_routes":["G"]},"A65":{"id":"A65","name":"Ozone Park-Lefferts Blvd","lat":40.685951,"lon":-73.825798,"location_type":null,"parent_station":"A65","borough":"queens","daytime_routes":["A"]},"213":{"id":"213","name":"E 180 St","lat":40.841894,"lon":-73.873488,"location_type":null,"parent_station":"213","borough":"bronx","daytime_routes":["2","5"]},"N08":{"id":"N08","name":"Kings Hwy","lat":40.603923,"lon":-73.980353,"location_type":null,"parent_station":"N08","borough":"brooklyn","daytime_routes":["N"]},"236":{"id":"236","name":"Bergen St","lat":40.680829,"lon":-73.975098,"location_type":null,"parent_station":"236","borough":"brooklyn","daytime_routes":["2","3"]},"F18":{"id":"F18","name":"York St","lat":40.701397,"lon":-73.986751,"location_type":null,"parent_station":"F18","borough":"brooklyn","daytime_routes":["F"]},"137":{"id":"137","name":"Chambers St","lat":40.715478,"lon":-74.009266,"location_type":null,"parent_station":"137","borough":"manhattan","daytime_routes":["1","2","3"]},"G30":{"id":"G30","name":"Broadway","lat":40.706092,"lon":-73.950308,"location_type":null,"parent_station":"G30","borough":"brooklyn","daytime_routes":["G"]},"J19":{"id":"J19","name":"Cypress Hills","lat":40.689941,"lon":-73.87255,"location_type":null,"parent_station":"J19","borough":"brooklyn","daytime_routes":["J"]},"S15":{"id":"S15","name":"Prince's Bay","lat":40.525507,"lon":-74.200064,"location_type":null,"parent_station":"S15","borough":"staten_island","daytime_routes":["Si"]},"D16":{"id":"D16","name":"42 St-Bryant Pk","lat":40.754222,"lon":-73.984569,"location_type":null,"parent_station":"D16","borough":"manhattan","daytime_routes":["M","F","B","D"]},"L17":{"id":"L17","name":"Myrtle-Wyckoff Avs","lat":40.699814,"lon":-73.911586,"location_type":null,"parent_station":"L17","borough":"brooklyn","daytime_routes":["L"]},"D03":{"id":"D03","name":"Bedford Park Blvd","lat":40.873244,"lon":-73.887138,"location_type":null,"parent_station":"D03","borough":"bronx","daytime_routes":["B","D"]},"B18":{"id":"B18","name":"79 St","lat":40.613501,"lon":-74.00061,"location_type":null,"parent_station":"B18","borough":"brooklyn","daytime_routes":["D"]},"J29":{"id":"J29","name":"Halsey St","lat":40.68637,"lon":-73.916559,"location_type":null,"parent_station":"J29","borough":"brooklyn","daytime_routes":["J"]},"G08":{"id":"G08","name":"Forest Hills-71 Av","lat":40.721691,"lon":-73.844521,"location_type":null,"parent_station":"G08","borough":"queens","daytime_routes":["M","F","R","E"]},"241":{"id":"241","name":"President St-Medgar Evers College","lat":40.667883,"lon":-73.950683,"location_type":null,"parent_station":"241","borough":"brooklyn","daytime_routes":["2","5"]},"A16":{"id":"A16","name":"116 St","lat":40.805085,"lon":-73.954882,"location_type":null,"parent_station":"A16","borough":"manhattan","daytime_routes":["C","B"]},"201":{"id":"201","name":"Wakefield-241 St","lat":40.903125,"lon":-73.85062,"location_type":null,"parent_station":"201","borough":"bronx","daytime_routes":["2"]},"G14":{"id":"G14","name":"Jackson Hts-Roosevelt Av","lat":40.746644,"lon":-73.891338,"location_type":null,"parent_station":"G14","borough":"queens","daytime_routes":["M","F","R","E"]},"F35":{"id":"F35","name":"Kings Hwy","lat":40.603217,"lon":-73.972361,"location_type":null,"parent_station":"F35","borough":"brooklyn","daytime_routes":["F"]},"104":{"id":"104","name":"231 St","lat":40.878856,"lon":-73.904834,"location_type":null,"parent_station":"104","borough":"bronx","daytime_routes":["1"]},"L27":{"id":"L27","name":"New Lots Av","lat":40.658733,"lon":-73.899232,"location_type":null,"parent_station":"L27","borough":"brooklyn","daytime_routes":["L"]},"B17":{"id":"B17","name":"71 St","lat":40.619589,"lon":-73.998864,"location_type":null,"parent_station":"B17","borough":"brooklyn","daytime_routes":["D"]},"715":{"id":"715","name":"40 St-Lowery St","lat":40.743781,"lon":-73.924016,"location_type":null,"parent_station":"715","borough":"queens","daytime_routes":["7"]},"S27":{"id":"S27","name":"Grasmere","lat":40.603117,"lon":-74.084087,"location_type":null,"parent_station":"S27","borough":"staten_island","daytime_routes":["Si"]},"R41":{"id":"R41","name":"59 St","lat":40.641362,"lon":-74.017881,"location_type":null,"parent_station":"R41","borough":"brooklyn","daytime_routes":["R","N"]},"713":{"id":"713","name":"52 St","lat":40.744149,"lon":-73.912549,"location_type":null,"parent_station":"713","borough":"queens","daytime_routes":["7"]},"412":{"id":"412","name":"170 St","lat":40.840075,"lon":-73.917791,"location_type":null,"parent_station":"412","borough":"bronx","daytime_routes":["4"]},"D26":{"id":"D26","name":"Prospect Park","lat":40.661614,"lon":-73.962246,"location_type":null,"parent_station":"D26","borough":"brooklyn","daytime_routes":["Q","B","Sf"]},"M16":{"id":"M16","name":"Marcy Av","lat":40.708359,"lon":-73.957757,"location_type":null,"parent_station":"M16","borough":"brooklyn","daytime_routes":["M","J","Z"]},"D42":{"id":"D42","name":"W 8 St-NY Aquarium","lat":40.576127,"lon":-73.975939,"location_type":null,"parent_station":"D42","borough":"brooklyn","daytime_routes":["Q","F"]},"H08":{"id":"H08","name":"Beach 44 St","lat":40.592943,"lon":-73.776013,"location_type":null,"parent_station":"H08","borough":"queens","daytime_routes":["A"]},"R35":{"id":"R35","name":"25 St","lat":40.660397,"lon":-73.998091,"location_type":null,"parent_station":"R35","borough":"brooklyn","daytime_routes":["R"]},"R30":{"id":"R30","name":"DeKalb Av","lat":40.690635,"lon":-73.981824,"location_type":null,"parent_station":"R30","borough":"brooklyn","daytime_routes":["Q","B","R"]},"N07":{"id":"N07","name":"Bay Pkwy","lat":40.611815,"lon":-73.981848,"location_type":null,"parent_station":"N07","borough":"brooklyn","daytime_routes":["N"]},"631":{"id":"631","name":"Grand Central-42 St","lat":40.751776,"lon":-73.976848,"location_type":null,"parent_station":"631","borough":"manhattan","daytime_routes":["4","5","6"]},"N09":{"id":"N09","name":"Avenue U","lat":40.597473,"lon":-73.979137,"location_type":null,"parent_station":"N09","borough":"brooklyn","daytime_routes":["N"]},"G20":{"id":"G20","name":"36 St","lat":40.752039,"lon":-73.928781,"location_type":null,"parent_station":"G20","borough":"queens","daytime_routes":["M","R"]},"A43":{"id":"A43","name":"Lafayette Av","lat":40.686113,"lon":-73.973946,"location_type":null,"parent_station":"A43","borough":"brooklyn","daytime_routes":["C"]},"R27":{"id":"R27","name":"Whitehall St-South Ferry","lat":40.703087,"lon":-74.012994,"location_type":null,"parent_station":"R27","borough":"manhattan","daytime_routes":["R","W"]},"S25":{"id":"S25","name":"Dongan Hills","lat":40.588849,"lon":-74.09609,"location_type":null,"parent_station":"S25","borough":"staten_island","daytime_routes":["Si"]},"H10":{"id":"H10","name":"Beach 25 St","lat":40.600066,"lon":-73.761353,"location_type":null,"parent_station":"H10","borough":"queens","daytime_routes":["A"]},"R03":{"id":"R03","name":"Astoria Blvd","lat":40.770258,"lon":-73.917843,"location_type":null,"parent_station":"R03","borough":"queens","daytime_routes":["W","N"]},"619":{"id":"619","name":"3 Av-138 St","lat":40.810476,"lon":-73.926138,"location_type":null,"parent_station":"619","borough":"bronx","daytime_routes":["6"]},"F30":{"id":"F30","name":"18 Av","lat":40.629755,"lon":-73.976971,"location_type":null,"parent_station":"F30","borough":"brooklyn","daytime_routes":["F"]},"S13":{"id":"S13","name":"Richmond Valley","lat":40.519631,"lon":-74.229141,"location_type":null,"parent_station":"S13","borough":"staten_island","daytime_routes":["Si"]},"D07":{"id":"D07","name":"Tremont Av","lat":40.85041,"lon":-73.905227,"location_type":null,"parent_station":"D07","borough":"bronx","daytime_routes":["B","D"]},"120":{"id":"120","name":"96 St","lat":40.793919,"lon":-73.972323,"location_type":null,"parent_station":"120","borough":"manhattan","daytime_routes":["1","2","3"]},"G07":{"id":"G07","name":"Jamaica-Van Wyck","lat":40.702566,"lon":-73.816859,"location_type":null,"parent_station":"G07","borough":"queens","daytime_routes":["E"]},"F36":{"id":"F36","name":"Avenue U","lat":40.596063,"lon":-73.973357,"location_type":null,"parent_station":"F36","borough":"brooklyn","daytime_routes":["F"]},"J27":{"id":"J27","name":"Broadway Junction","lat":40.679498,"lon":-73.904512,"location_type":null,"parent_station":"J27","borough":"brooklyn","daytime_routes":["J","Z"]},"D38":{"id":"D38","name":"Neck Rd","lat":40.595246,"lon":-73.955161,"location_type":null,"parent_station":"D38","borough":"brooklyn","daytime_routes":["Q"]},"711":{"id":"711","name":"69 St","lat":40.746325,"lon":-73.896403,"location_type":null,"parent_station":"711","borough":"queens","daytime_routes":["7"]},"215":{"id":"215","name":"174 St","lat":40.837288,"lon":-73.887734,"location_type":null,"parent_station":"215","borough":"bronx","daytime_routes":["2","5"]},"F05":{"id":"F05","name":"Briarwood","lat":40.709179,"lon":-73.820574,"location_type":null,"parent_station":"F05","borough":"queens","daytime_routes":["F","E"]},"A06":{"id":"A06","name":"181 St","lat":40.851695,"lon":-73.937969,"location_type":null,"parent_station":"A06","borough":"manhattan","daytime_routes":["A"]},"G16":{"id":"G16","name":"Northern Blvd","lat":40.752885,"lon":-73.906006,"location_type":null,"parent_station":"G16","borough":"queens","daytime_routes":["M","R"]},"M12":{"id":"M12","name":"Flushing Av","lat":40.70026,"lon":-73.941126,"location_type":null,"parent_station":"M12","borough":"brooklyn","daytime_routes":["M","J"]},"418":{"id":"418","name":"Fulton St","lat":40.710368,"lon":-74.009509,"location_type":null,"parent_station":"418","borough":"manhattan","daytime_routes":["4","5"]},"H03":{"id":"H03","name":"Howard Beach-JFK Airport","lat":40.660476,"lon":-73.830301,"location_type":null,"parent_station":"H03","borough":"queens","daytime_routes":["A"]},"245":{"id":"245","name":"Beverly Rd","lat":40.645098,"lon":-73.948959,"location_type":null,"parent_station":"245","borough":"brooklyn","daytime_routes":["2","5"]},"205":{"id":"205","name":"233 St","lat":40.893193,"lon":-73.857473,"location_type":null,"parent_station":"205","borough":"bronx","daytime_routes":["2","5"]},"108":{"id":"108","name":"207 St","lat":40.864621,"lon":-73.918822,"location_type":null,"parent_station":"108","borough":"manhattan","daytime_routes":["1"]},"B04":{"id":"B04","name":"21 St-Queensbridge","lat":40.754203,"lon":-73.942836,"location_type":null,"parent_station":"B04","borough":"queens","daytime_routes":["M"]},"A61":{"id":"A61","name":"Rockaway Blvd","lat":40.680429,"lon":-73.843853,"location_type":null,"parent_station":"A61","borough":"queens","daytime_routes":["A"]},"B12":{"id":"B12","name":"9 Av","lat":40.646292,"lon":-73.994324,"location_type":null,"parent_station":"B12","borough":"brooklyn","daytime_routes":["D"]},"D30":{"id":"D30","name":"Cortelyou Rd","lat":40.640927,"lon":-73.963891,"location_type":null,"parent_station":"D30","borough":"brooklyn","daytime_routes":["Q"]},"226":{"id":"226","name":"116 St","lat":40.802098,"lon":-73.949625,"location_type":null,"parent_station":"226","borough":"manhattan","daytime_routes":["2","3"]},"R21":{"id":"R21","name":"8 St-NYU","lat":40.730328,"lon":-73.992629,"location_type":null,"parent_station":"R21","borough":"manhattan","daytime_routes":["R","W"]},"902":{"id":"902","name":"Times Sq-42 St","lat":40.755983,"lon":-73.986229,"location_type":null,"parent_station":"902","borough":"manhattan","daytime_routes":["S"]},"222":{"id":"222","name":"149 St-Grand Concourse","lat":40.81841,"lon":-73.926718,"location_type":null,"parent_station":"222","borough":"bronx","daytime_routes":["2","5"]},"R17":{"id":"R17","name":"34 St-Herald Sq","lat":40.749567,"lon":-73.98795,"location_type":null,"parent_station":"R17","borough":"manhattan","daytime_routes":["Q","R","W","N"]},"501":{"id":"501","name":"Eastchester-Dyre Av","lat":40.8883,"lon":-73.830834,"location_type":null,"parent_station":"501","borough":"bronx","daytime_routes":["5"]},"617":{"id":"617","name":"Cypress Av","lat":40.805368,"lon":-73.914042,"location_type":null,"parent_station":"617","borough":"bronx","daytime_routes":["6"]},"M11":{"id":"M11","name":"Myrtle Av","lat":40.697207,"lon":-73.935657,"location_type":null,"parent_station":"M11","borough":"brooklyn","daytime_routes":["M","J","Z"]},"212":{"id":"212","name":"Bronx Park East","lat":40.848828,"lon":-73.868457,"location_type":null,"parent_station":"212","borough":"bronx","daytime_routes":["2","5"]},"S20":{"id":"S20","name":"Bay Terrace","lat":40.5564,"lon":-74.136907,"location_type":null,"parent_station":"S20","borough":"staten_island","daytime_routes":["Si"]},"A33":{"id":"A33","name":"Spring St","lat":40.726227,"lon":-74.003739,"location_type":null,"parent_station":"A33","borough":"manhattan","daytime_routes":["C","E"]},"D08":{"id":"D08","name":"174-175 Sts","lat":40.8459,"lon":-73.910136,"location_type":null,"parent_station":"D08","borough":"bronx","daytime_routes":["B","D"]},"406":{"id":"406","name":"Kingsbridge Rd","lat":40.86776,"lon":-73.897174,"location_type":null,"parent_station":"406","borough":"bronx","daytime_routes":["4"]},"116":{"id":"116","name":"125 St","lat":40.815581,"lon":-73.958372,"location_type":null,"parent_station":"116","borough":"manhattan","daytime_routes":["1"]},"A32":{"id":"A32","name":"W 4 St-Wash Sq","lat":40.732338,"lon":-74.000495,"location_type":null,"parent_station":"A32","borough":"manhattan","daytime_routes":["C","A","E"]},"S18":{"id":"S18","name":"Eltingville","lat":40.544601,"lon":-74.16457,"location_type":null,"parent_station":"S18","borough":"staten_island","daytime_routes":["Si"]},"E01":{"id":"E01","name":"World Trade Center","lat":40.712582,"lon":-74.009781,"location_type":null,"parent_station":"E01","borough":"manhattan","daytime_routes":["E"]},"211":{"id":"211","name":"Pelham Pkwy","lat":40.857192,"lon":-73.867615,"location_type":null,"parent_station":"211","borough":"bronx","daytime_routes":["2","5"]},"254":{"id":"254","name":"Junius St","lat":40.663515,"lon":-73.902447,"location_type":null,"parent_station":"254","borough":"brooklyn","daytime_routes":["3"]},"407":{"id":"407","name":"Fordham Rd","lat":40.862803,"lon":-73.901034,"location_type":null,"parent_station":"407","borough":"bronx","daytime_routes":["4"]},"R24":{"id":"R24","name":"City Hall","lat":40.713282,"lon":-74.006978,"location_type":null,"parent_station":"R24","borough":"manhattan","daytime_routes":["R","W"]},"Q03":{"id":"Q03","name":"72 St","lat":40.768799,"lon":-73.958424,"location_type":null,"parent_station":"Q03","borough":"manhattan","daytime_routes":["Q"]},"251":{"id":"251","name":"Sutter Av-Rutland Rd","lat":40.664717,"lon":-73.92261,"location_type":null,"parent_station":"251","borough":"brooklyn","daytime_routes":["3"]},"F03":{"id":"F03","name":"Parsons Blvd","lat":40.707564,"lon":-73.803326,"location_type":null,"parent_station":"F03","borough":"queens","daytime_routes":["F"]},"H11":{"id":"H11","name":"Far Rockaway-Mott Av","lat":40.603995,"lon":-73.755405,"location_type":null,"parent_station":"H11","borough":"queens","daytime_routes":["A"]},"L22":{"id":"L22","name":"Broadway Junction","lat":40.678856,"lon":-73.90324,"location_type":null,"parent_station":"L22","borough":"brooklyn","daytime_routes":["L"]},"639":{"id":"639","name":"Canal St","lat":40.718803,"lon":-74.000193,"location_type":null,"parent_station":"639","borough":"manhattan","daytime_routes":["6"]},"L21":{"id":"L21","name":"Bushwick Av-Aberdeen St","lat":40.682829,"lon":-73.905249,"location_type":null,"parent_station":"L21","borough":"brooklyn","daytime_routes":["L"]},"242":{"id":"242","name":"Sterling St","lat":40.662742,"lon":-73.95085,"location_type":null,"parent_station":"242","borough":"brooklyn","daytime_routes":["2","5"]},"S14":{"id":"S14","name":"Pleasant Plains","lat":40.52241,"lon":-74.217847,"location_type":null,"parent_station":"S14","borough":"staten_island","daytime_routes":["Si"]},"R14":{"id":"R14","name":"57 St-7 Av","lat":40.764664,"lon":-73.980658,"location_type":null,"parent_station":"R14","borough":"manhattan","daytime_routes":["Q","R","W","N"]},"R29":{"id":"R29","name":"Jay St-MetroTech","lat":40.69218,"lon":-73.985942,"location_type":null,"parent_station":"R29","borough":"brooklyn","daytime_routes":["R"]},"708":{"id":"708","name":"90 St-Elmhurst Av","lat":40.748408,"lon":-73.876613,"location_type":null,"parent_station":"708","borough":"queens","daytime_routes":["7"]},"G15":{"id":"G15","name":"65 St","lat":40.749669,"lon":-73.898453,"location_type":null,"parent_station":"G15","borough":"queens","daytime_routes":["M","R"]},"M05":{"id":"M05","name":"Forest Av","lat":40.704423,"lon":-73.903077,"location_type":null,"parent_station":"M05","borough":"queens","daytime_routes":["M"]},"F25":{"id":"F25","name":"15 St-Prospect Park","lat":40.660365,"lon":-73.979493,"location_type":null,"parent_station":"F25","borough":"brooklyn","daytime_routes":["F","G"]},"F16":{"id":"F16","name":"East Broadway","lat":40.713715,"lon":-73.990173,"location_type":null,"parent_station":"F16","borough":"manhattan","daytime_routes":["F"]},"A15":{"id":"A15","name":"125 St","lat":40.811109,"lon":-73.952343,"location_type":null,"parent_station":"A15","borough":"manhattan","daytime_routes":["C","A","B","D"]},"138":{"id":"138","name":"WTC Cortlandt","lat":40.711835,"lon":-74.012188,"location_type":null,"parent_station":"138","borough":"manhattan","daytime_routes":["1"]},"R43":{"id":"R43","name":"77 St","lat":40.629742,"lon":-74.02551,"location_type":null,"parent_station":"R43","borough":"brooklyn","daytime_routes":["R"]},"D13":{"id":"D13","name":"145 St","lat":40.824783,"lon":-73.944216,"location_type":null,"parent_station":"D13","borough":"manhattan","daytime_routes":["B","D"]},"D12":{"id":"D12","name":"155 St","lat":40.830135,"lon":-73.938209,"location_type":null,"parent_station":"D12","borough":"manhattan","daytime_routes":["B","D"]},"G28":{"id":"G28","name":"Nassau Av","lat":40.724635,"lon":-73.951277,"location_type":null,"parent_station":"G28","borough":"brooklyn","daytime_routes":["G"]},"A51":{"id":"A51","name":"Broadway Junction","lat":40.678334,"lon":-73.905316,"location_type":null,"parent_station":"A51","borough":"brooklyn","daytime_routes":["C","A"]},"709":{"id":"709","name":"82 St-Jackson Hts","lat":40.747659,"lon":-73.883697,"location_type":null,"parent_station":"709","borough":"queens","daytime_routes":["7"]},"A03":{"id":"A03","name":"Dyckman St","lat":40.865491,"lon":-73.927271,"location_type":null,"parent_station":"A03","borough":"manhattan","daytime_routes":["A"]},"M18":{"id":"M18","name":"Delancey St-Essex St","lat":40.718315,"lon":-73.987437,"location_type":null,"parent_station":"M18","borough":"manhattan","daytime_routes":["M","J","Z"]},"J14":{"id":"J14","name":"104 St","lat":40.695178,"lon":-73.84433,"location_type":null,"parent_station":"J14","borough":"queens","daytime_routes":["J","Z"]},"615":{"id":"615","name":"E 149 St","lat":40.812118,"lon":-73.904098,"location_type":null,"parent_station":"615","borough":"bronx","daytime_routes":["6"]},"402":{"id":"402","name":"Mosholu Pkwy","lat":40.87975,"lon":-73.884655,"location_type":null,"parent_station":"402","borough":"bronx","daytime_routes":["4"]},"612":{"id":"612","name":"Whitlock Av","lat":40.826525,"lon":-73.886283,"location_type":null,"parent_station":"612","borough":"bronx","daytime_routes":["6"]},"B13":{"id":"B13","name":"Fort Hamilton Pkwy","lat":40.640914,"lon":-73.994304,"location_type":null,"parent_station":"B13","borough":"brooklyn","daytime_routes":["D"]},"A20":{"id":"A20","name":"86 St","lat":40.785868,"lon":-73.968916,"location_type":null,"parent_station":"A20","borough":"manhattan","daytime_routes":["C","B"]},"G12":{"id":"G12","name":"Grand Av-Newtown","lat":40.737015,"lon":-73.877223,"location_type":null,"parent_station":"G12","borough":"queens","daytime_routes":["M","R"]},"D05":{"id":"D05","name":"Fordham Rd","lat":40.861296,"lon":-73.897749,"location_type":null,"parent_station":"D05","borough":"bronx","daytime_routes":["B","D"]},"413":{"id":"413","name":"167 St","lat":40.835537,"lon":-73.9214,"location_type":null,"parent_station":"413","borough":"bronx","daytime_routes":["4"]},"S26":{"id":"S26","name":"Old Town","lat":40.596612,"lon":-74.087368,"location_type":null,"parent_station":"S26","borough":"staten_island","daytime_routes":["Si"]},"L20":{"id":"L20","name":"Wilson Av","lat":40.688764,"lon":-73.904046,"location_type":null,"parent_station":"L20","borough":"brooklyn","daytime_routes":["L"]},"G11":{"id":"G11","name":"Woodhaven Blvd","lat":40.733106,"lon":-73.869229,"location_type":null,"parent_station":"G11","borough":"queens","daytime_routes":["M","R"]},"416":{"id":"416","name":"138 St-Grand Concourse","lat":40.813224,"lon":-73.929849,"location_type":null,"parent_station":"416","borough":"bronx","daytime_routes":["4","5"]},"J13":{"id":"J13","name":"111 St","lat":40.697418,"lon":-73.836345,"location_type":null,"parent_station":"J13","borough":"queens","daytime_routes":["J"]},"217":{"id":"217","name":"Simpson St","lat":40.824073,"lon":-73.893064,"location_type":null,"parent_station":"217","borough":"bronx","daytime_routes":["2","5"]},"607":{"id":"607","name":"Castle Hill Av","lat":40.834255,"lon":-73.851222,"location_type":null,"parent_station":"607","borough":"bronx","daytime_routes":["6"]},"255":{"id":"255","name":"Pennsylvania Av","lat":40.664635,"lon":-73.894895,"location_type":null,"parent_station":"255","borough":"brooklyn","daytime_routes":["3"]},"621":{"id":"621","name":"125 St","lat":40.804138,"lon":-73.937594,"location_type":null,"parent_station":"621","borough":"manhattan","daytime_routes":["4","5","6"]},"F39":{"id":"F39","name":"Neptune Av","lat":40.581011,"lon":-73.974574,"location_type":null,"parent_station":"F39","borough":"brooklyn","daytime_routes":["F"]},"L29":{"id":"L29","name":"Canarsie-Rockaway Pkwy","lat":40.646654,"lon":-73.90185,"location_type":null,"parent_station":"L29","borough":"brooklyn","daytime_routes":["L"]},"423":{"id":"423","name":"Borough Hall","lat":40.692404,"lon":-73.990151,"location_type":null,"parent_station":"423","borough":"brooklyn","daytime_routes":["4","5"]},"248":{"id":"248","name":"Nostrand Av","lat":40.669847,"lon":-73.950466,"location_type":null,"parent_station":"248","borough":"brooklyn","daytime_routes":["3"]},"604":{"id":"604","name":"Westchester Sq-E Tremont Av","lat":40.839892,"lon":-73.842952,"location_type":null,"parent_station":"604","borough":"bronx","daytime_routes":["6"]},"411":{"id":"411","name":"Mt Eden Av","lat":40.844434,"lon":-73.914685,"location_type":null,"parent_station":"411","borough":"bronx","daytime_routes":["4"]},"F32":{"id":"F32","name":"Bay Pkwy","lat":40.620769,"lon":-73.975264,"location_type":null,"parent_station":"F32","borough":"brooklyn","daytime_routes":["F"]},"L02":{"id":"L02","name":"6 Av","lat":40.737335,"lon":-73.996786,"location_type":null,"parent_station":"L02","borough":"manhattan","daytime_routes":["L"]},"410":{"id":"410","name":"176 St","lat":40.84848,"lon":-73.911794,"location_type":null,"parent_station":"410","borough":"bronx","daytime_routes":["4"]},"R13":{"id":"R13","name":"5 Av/59 St","lat":40.764811,"lon":-73.973347,"location_type":null,"parent_station":"R13","borough":"manhattan","daytime_routes":["R","W","N"]},"702":{"id":"702","name":"Mets-Willets Point","lat":40.754622,"lon":-73.845625,"location_type":null,"parent_station":"702","borough":"queens","daytime_routes":["7"]},"714":{"id":"714","name":"46 St-Bliss St","lat":40.743132,"lon":-73.918435,"location_type":null,"parent_station":"714","borough":"queens","daytime_routes":["7"]},"210":{"id":"210","name":"Allerton Av","lat":40.865462,"lon":-73.867352,"location_type":null,"parent_station":"210","borough":"bronx","daytime_routes":["2","5"]},"F22":{"id":"F22","name":"Smith-9 Sts","lat":40.67358,"lon":-73.995959,"location_type":null,"parent_station":"F22","borough":"brooklyn","daytime_routes":["F","G"]},"Q04":{"id":"Q04","name":"86 St","lat":40.777891,"lon":-73.951787,"location_type":null,"parent_station":"Q04","borough":"manhattan","daytime_routes":["Q"]},"S09":{"id":"S09","name":"Tottenville","lat":40.512764,"lon":-74.251961,"location_type":null,"parent_station":"S09","borough":"staten_island","daytime_routes":["Si"]},"A50":{"id":"A50","name":"Rockaway Av","lat":40.67834,"lon":-73.911946,"location_type":null,"parent_station":"A50","borough":"brooklyn","daytime_routes":["C"]},"723":{"id":"723","name":"Grand Central-42 St","lat":40.751431,"lon":-73.976041,"location_type":null,"parent_station":"723","borough":"manhattan","daytime_routes":["7"]},"A14":{"id":"A14","name":"135 St","lat":40.817894,"lon":-73.947649,"location_type":null,"parent_station":"A14","borough":"manhattan","daytime_routes":["C","B"]},"R39":{"id":"R39","name":"45 St","lat":40.648939,"lon":-74.010006,"location_type":null,"parent_station":"R39","borough":"brooklyn","daytime_routes":["R"]},"D20":{"id":"D20","name":"W 4 St-Wash Sq","lat":40.732338,"lon":-74.000495,"location_type":null,"parent_station":"D20","borough":"manhattan","daytime_routes":["M","F","B","D"]},"F29":{"id":"F29","name":"Ditmas Av","lat":40.636119,"lon":-73.978172,"location_type":null,"parent_station":"F29","borough":"brooklyn","daytime_routes":["F"]},"625":{"id":"625","name":"96 St","lat":40.785672,"lon":-73.95107,"location_type":null,"parent_station":"625","borough":"manhattan","daytime_routes":["6"]},"115":{"id":"115","name":"137 St-City College","lat":40.822008,"lon":-73.953676,"location_type":null,"parent_station":"115","borough":"manhattan","daytime_routes":["1"]},"A54":{"id":"A54","name":"Shepherd Av","lat":40.67413,"lon":-73.88075,"location_type":null,"parent_station":"A54","borough":"brooklyn","daytime_routes":["C"]},"D31":{"id":"D31","name":"Newkirk Plaza","lat":40.635082,"lon":-73.962793,"location_type":null,"parent_station":"D31","borough":"brooklyn","daytime_routes":["Q","B"]},"G26":{"id":"G26","name":"Greenpoint Av","lat":40.731352,"lon":-73.954449,"location_type":null,"parent_station":"G26","borough":"brooklyn","daytime_routes":["G"]},"A42":{"id":"A42","name":"Hoyt-Schermerhorn Sts","lat":40.688484,"lon":-73.985001,"location_type":null,"parent_station":"A42","borough":"brooklyn","daytime_routes":["C","A","G"]},"S19":{"id":"S19","name":"Great Kills","lat":40.551231,"lon":-74.151399,"location_type":null,"parent_station":"S19","borough":"staten_island","daytime_routes":["Si"]},"M06":{"id":"M06","name":"Seneca Av","lat":40.702762,"lon":-73.90774,"location_type":null,"parent_station":"M06","borough":"queens","daytime_routes":["M"]},"606":{"id":"606","name":"Zerega Av","lat":40.836488,"lon":-73.847036,"location_type":null,"parent_station":"606","borough":"bronx","daytime_routes":["6"]},"H13":{"id":"H13","name":"Beach 98 St","lat":40.585307,"lon":-73.820558,"location_type":null,"parent_station":"H13","borough":"queens","daytime_routes":["A","Sr"]},"252":{"id":"252","name":"Saratoga Av","lat":40.661453,"lon":-73.916327,"location_type":null,"parent_station":"252","borough":"brooklyn","daytime_routes":["3"]},"D28":{"id":"D28","name":"Church Av","lat":40.650527,"lon":-73.962982,"location_type":null,"parent_station":"D28","borough":"brooklyn","daytime_routes":["Q","B"]},"B22":{"id":"B22","name":"25 Av","lat":40.597704,"lon":-73.986829,"location_type":null,"parent_station":"B22","borough":"brooklyn","daytime_routes":["D"]},"237":{"id":"237","name":"Grand Army Plaza","lat":40.675235,"lon":-73.971046,"location_type":null,"parent_station":"237","borough":"brooklyn","daytime_routes":["2","3"]},"106":{"id":"106","name":"Marble Hill-225 St","lat":40.874561,"lon":-73.909831,"location_type":null,"parent_station":"106","borough":"manhattan","daytime_routes":["1"]},"A30":{"id":"A30","name":"23 St","lat":40.745906,"lon":-73.998041,"location_type":null,"parent_station":"A30","borough":"manhattan","daytime_routes":["C","E"]},"707":{"id":"707","name":"Junction Blvd","lat":40.749145,"lon":-73.869527,"location_type":null,"parent_station":"707","borough":"queens","daytime_routes":["7"]},"110":{"id":"110","name":"191 St","lat":40.855225,"lon":-73.929412,"location_type":null,"parent_station":"110","borough":"manhattan","daytime_routes":["1"]},"R31":{"id":"R31","name":"Atlantic Av-Barclays Ctr","lat":40.683666,"lon":-73.97881,"location_type":null,"parent_station":"R31","borough":"brooklyn","daytime_routes":["R","D","N"]},"L06":{"id":"L06","name":"1 Av","lat":40.730953,"lon":-73.981628,"location_type":null,"parent_station":"L06","borough":"manhattan","daytime_routes":["L"]},"G13":{"id":"G13","name":"Elmhurst Av","lat":40.742454,"lon":-73.882017,"location_type":null,"parent_station":"G13","borough":"queens","daytime_routes":["M","R"]},"D41":{"id":"D41","name":"Ocean Pkwy","lat":40.576312,"lon":-73.968501,"location_type":null,"parent_station":"D41","borough":"brooklyn","daytime_routes":["Q"]},"M14":{"id":"M14","name":"Hewes St","lat":40.70687,"lon":-73.953431,"location_type":null,"parent_station":"M14","borough":"brooklyn","daytime_routes":["M","J"]},"M20":{"id":"M20","name":"Canal St","lat":40.718092,"lon":-73.999892,"location_type":null,"parent_station":"M20","borough":"manhattan","daytime_routes":["J","Z"]},"611":{"id":"611","name":"Elder Av","lat":40.828584,"lon":-73.879159,"location_type":null,"parent_station":"611","borough":"bronx","daytime_routes":["6"]},"S23":{"id":"S23","name":"Grant City","lat":40.578965,"lon":-74.109704,"location_type":null,"parent_station":"S23","borough":"staten_island","daytime_routes":["Si"]},"R33":{"id":"R33","name":"4 Av-9 St","lat":40.670847,"lon":-73.988302,"location_type":null,"parent_station":"R33","borough":"brooklyn","daytime_routes":["R"]},"S22":{"id":"S22","name":"New Dorp","lat":40.57348,"lon":-74.11721,"location_type":null,"parent_station":"S22","borough":"staten_island","daytime_routes":["Si"]},"R40":{"id":"R40","name":"53 St","lat":40.645069,"lon":-74.014034,"location_type":null,"parent_station":"R40","borough":"brooklyn","daytime_routes":["R"]},"719":{"id":"719","name":"Court Sq","lat":40.747023,"lon":-73.945264,"location_type":null,"parent_station":"719","borough":"queens","daytime_routes":["7"]},"G21":{"id":"G21","name":"Queens Plaza","lat":40.748973,"lon":-73.937243,"location_type":null,"parent_station":"G21","borough":"queens","daytime_routes":["F","R","E"]},"L08":{"id":"L08","name":"Bedford Av","lat":40.717304,"lon":-73.956872,"location_type":null,"parent_station":"L08","borough":"brooklyn","daytime_routes":["L"]},"R01":{"id":"R01","name":"Astoria-Ditmars Blvd","lat":40.775036,"lon":-73.912034,"location_type":null,"parent_station":"R01","borough":"queens","daytime_routes":["W","N"]},"M01":{"id":"M01","name":"Middle Village-Metropolitan Av","lat":40.711396,"lon":-73.889601,"location_type":null,"parent_station":"M01","borough":"queens","daytime_routes":["M"]},"S29":{"id":"S29","name":"Stapleton","lat":40.627915,"lon":-74.075162,"location_type":null,"parent_station":"S29","borough":"staten_island","daytime_routes":["Si"]},"A12":{"id":"A12","name":"145 St","lat":40.824783,"lon":-73.944216,"location_type":null,"parent_station":"A12","borough":"manhattan","daytime_routes":["C","A"]},"208":{"id":"208","name":"Gun Hill Rd","lat":40.87785,"lon":-73.866256,"location_type":null,"parent_station":"208","borough":"bronx","daytime_routes":["2","5"]},"301":{"id":"301","name":"Harlem-148 St","lat":40.82388,"lon":-73.93647,"location_type":null,"parent_station":"301","borough":"manhattan","daytime_routes":["3"]},"D22":{"id":"D22","name":"Grand St","lat":40.718267,"lon":-73.993753,"location_type":null,"parent_station":"D22","borough":"manhattan","daytime_routes":["B","D"]},"F26":{"id":"F26","name":"Fort Hamilton Pkwy","lat":40.650782,"lon":-73.975776,"location_type":null,"parent_station":"F26","borough":"brooklyn","daytime_routes":["F","G"]},"G32":{"id":"G32","name":"Myrtle-Willoughby Avs","lat":40.694568,"lon":-73.949046,"location_type":null,"parent_station":"G32","borough":"brooklyn","daytime_routes":["G"]},"F09":{"id":"F09","name":"Court Sq-23 St","lat":40.747846,"lon":-73.946,"location_type":null,"parent_station":"F09","borough":"queens","daytime_routes":["F","E"]},"B20":{"id":"B20","name":"20 Av","lat":40.604556,"lon":-73.998168,"location_type":null,"parent_station":"B20","borough":"brooklyn","daytime_routes":["D"]},"R42":{"id":"R42","name":"Bay Ridge Av","lat":40.634967,"lon":-74.023377,"location_type":null,"parent_station":"R42","borough":"brooklyn","daytime_routes":["R"]},"634":{"id":"634","name":"23 St-Baruch College","lat":40.739864,"lon":-73.986599,"location_type":null,"parent_station":"634","borough":"manhattan","daytime_routes":["6"]},"J28":{"id":"J28","name":"Chauncey St","lat":40.682893,"lon":-73.910456,"location_type":null,"parent_station":"J28","borough":"brooklyn","daytime_routes":["J","Z"]},"N06":{"id":"N06","name":"20 Av","lat":40.61741,"lon":-73.985026,"location_type":null,"parent_station":"N06","borough":"brooklyn","daytime_routes":["N"]},"250":{"id":"250","name":"Crown Hts-Utica Av","lat":40.668897,"lon":-73.932942,"location_type":null,"parent_station":"250","borough":"brooklyn","daytime_routes":["3","4"]},"135":{"id":"135","name":"Canal St","lat":40.722854,"lon":-74.006277,"location_type":null,"parent_station":"135","borough":"manhattan","daytime_routes":["1"]},"139":{"id":"139","name":"Rector St","lat":40.707513,"lon":-74.013783,"location_type":null,"parent_station":"139","borough":"manhattan","daytime_routes":["1"]},"142":{"id":"142","name":"South Ferry","lat":40.702068,"lon":-74.013664,"location_type":null,"parent_station":"142","borough":"manhattan","daytime_routes":["1"]},"M22":{"id":"M22","name":"Fulton St","lat":40.710374,"lon":-74.007582,"location_type":null,"parent_station":"M22","borough":"manhattan","daytime_routes":["J","Z"]},"B10":{"id":"B10","name":"57 St","lat":40.763972,"lon":-73.97745,"location_type":null,"parent_station":"B10","borough":"manhattan","daytime_routes":["M"]},"725":{"id":"725","name":"Times Sq-42 St","lat":40.755477,"lon":-73.987691,"location_type":null,"parent_station":"725","borough":"manhattan","daytime_routes":["7"]},"A59":{"id":"A59","name":"80 St","lat":40.679371,"lon":-73.858992,"location_type":null,"parent_station":"A59","borough":"queens","daytime_routes":["A"]},"G24":{"id":"G24","name":"21 St","lat":40.744065,"lon":-73.949724,"location_type":null,"parent_station":"G24","borough":"queens","daytime_routes":["G"]},"127":{"id":"127","name":"Times Sq-42 St","lat":40.75529,"lon":-73.987495,"location_type":null,"parent_station":"127","borough":"manhattan","daytime_routes":["1","2","3"]},"F14":{"id":"F14","name":"2 Av","lat":40.723402,"lon":-73.989938,"location_type":null,"parent_station":"F14","borough":"manhattan","daytime_routes":["F"]},"B21":{"id":"B21","name":"Bay Pkwy","lat":40.601875,"lon":-73.993728,"location_type":null,"parent_station":"B21","borough":"brooklyn","daytime_routes":["D"]},"114":{"id":"114","name":"145 St","lat":40.826551,"lon":-73.95036,"location_type":null,"parent_station":"114","borough":"manhattan","daytime_routes":["1"]},"R19":{"id":"R19","name":"23 St","lat":40.741303,"lon":-73.989344,"location_type":null,"parent_station":"R19","borough":"manhattan","daytime_routes":["R","W"]},"S28":{"id":"S28","name":"Clifton","lat":40.621319,"lon":-74.071402,"location_type":null,"parent_station":"S28","borough":"staten_island","daytime_routes":["Si"]},"D33":{"id":"D33","name":"Avenue J","lat":40.625039,"lon":-73.960803,"location_type":null,"parent_station":"D33","borough":"brooklyn","daytime_routes":["Q"]},"504":{"id":"504","name":"Pelham Pkwy","lat":40.858985,"lon":-73.855359,"location_type":null,"parent_station":"504","borough":"bronx","daytime_routes":["5"]},"256":{"id":"256","name":"Van Siclen Av","lat":40.665449,"lon":-73.889395,"location_type":null,"parent_station":"256","borough":"brooklyn","daytime_routes":["3"]},"A63":{"id":"A63","name":"104 St","lat":40.681711,"lon":-73.837683,"location_type":null,"parent_station":"A63","borough":"queens","daytime_routes":["A"]},"616":{"id":"616","name":"E 143 St-St Mary's St","lat":40.808719,"lon":-73.907657,"location_type":null,"parent_station":"616","borough":"bronx","daytime_routes":["6"]},"415":{"id":"415","name":"149 St-Grand Concourse","lat":40.818375,"lon":-73.927351,"location_type":null,"parent_station":"415","borough":"bronx","daytime_routes":["4"]},"D06":{"id":"D06","name":"182-183 Sts","lat":40.856093,"lon":-73.900741,"location_type":null,"parent_station":"D06","borough":"bronx","daytime_routes":["B","D"]},"224":{"id":"224","name":"135 St","lat":40.814229,"lon":-73.94077,"location_type":null,"parent_station":"224","borough":"manhattan","daytime_routes":["2","3"]},"126":{"id":"126","name":"50 St","lat":40.761728,"lon":-73.983849,"location_type":null,"parent_station":"126","borough":"manhattan","daytime_routes":["1"]},"R08":{"id":"R08","name":"39 Av-Dutch Kills","lat":40.752882,"lon":-73.932755,"location_type":null,"parent_station":"R08","borough":"queens","daytime_routes":["W","N"]},"N03":{"id":"N03","name":"Fort Hamilton Pkwy","lat":40.631386,"lon":-74.005351,"location_type":null,"parent_station":"N03","borough":"brooklyn","daytime_routes":["N"]},"632":{"id":"632","name":"33 St","lat":40.746081,"lon":-73.982076,"location_type":null,"parent_station":"632","borough":"manhattan","daytime_routes":["6"]},"F38":{"id":"F38","name":"Avenue X","lat":40.58962,"lon":-73.97425,"location_type":null,"parent_station":"F38","borough":"brooklyn","daytime_routes":["F"]},"M10":{"id":"M10","name":"Central Av","lat":40.697857,"lon":-73.927397,"location_type":null,"parent_station":"M10","borough":"brooklyn","daytime_routes":["M"]},"S31":{"id":"S31","name":"St George","lat":40.643748,"lon":-74.073643,"location_type":null,"parent_station":"S31","borough":"staten_island","daytime_routes":["Si"]},"502":{"id":"502","name":"Baychester Av","lat":40.878663,"lon":-73.838591,"location_type":null,"parent_station":"502","borough":"bronx","daytime_routes":["5"]},"M09":{"id":"M09","name":"Knickerbocker Av","lat":40.698664,"lon":-73.919711,"location_type":null,"parent_station":"M09","borough":"brooklyn","daytime_routes":["M"]},"F11":{"id":"F11","name":"Lexington Av/53 St","lat":40.757552,"lon":-73.969055,"location_type":null,"parent_station":"F11","borough":"manhattan","daytime_routes":["F","E"]},"H14":{"id":"H14","name":"Beach 105 St","lat":40.583209,"lon":-73.827559,"location_type":null,"parent_station":"H14","borough":"queens","daytime_routes":["A","Sr"]},"J30":{"id":"J30","name":"Gates Av","lat":40.68963,"lon":-73.92227,"location_type":null,"parent_station":"J30","borough":"brooklyn","daytime_routes":["J","Z"]},"G06":{"id":"G06","name":"Sutphin Blvd-Archer Av-JFK Airport","lat":40.700486,"lon":-73.807969,"location_type":null,"parent_station":"G06","borough":"queens","daytime_routes":["J","E","Z"]},"F15":{"id":"F15","name":"Delancey St-Essex St","lat":40.718611,"lon":-73.988114,"location_type":null,"parent_station":"F15","borough":"manhattan","daytime_routes":["F"]},"623":{"id":"623","name":"110 St","lat":40.79502,"lon":-73.94425,"location_type":null,"parent_station":"623","borough":"manhattan","daytime_routes":["6"]},"R11":{"id":"R11","name":"Lexington Av/59 St","lat":40.76266,"lon":-73.967258,"location_type":null,"parent_station":"R11","borough":"manhattan","daytime_routes":["R","W","N"]},"H06":{"id":"H06","name":"Beach 67 St","lat":40.590927,"lon":-73.796924,"location_type":null,"parent_station":"H06","borough":"queens","daytime_routes":["A"]},"419":{"id":"419","name":"Wall St","lat":40.707557,"lon":-74.011862,"location_type":null,"parent_station":"419","borough":"manhattan","daytime_routes":["4","5"]},"G05":{"id":"G05","name":"Jamaica Center-Parsons/Archer","lat":40.702147,"lon":-73.801109,"location_type":null,"parent_station":"G05","borough":"queens","daytime_routes":["J","E","Z"]},"A05":{"id":"A05","name":"190 St","lat":40.859022,"lon":-73.93418,"location_type":null,"parent_station":"A05","borough":"manhattan","daytime_routes":["A"]},"A45":{"id":"A45","name":"Franklin Av","lat":40.68138,"lon":-73.956848,"location_type":null,"parent_station":"A45","borough":"brooklyn","daytime_routes":["C"]},"A57":{"id":"A57","name":"Grant Av","lat":40.677044,"lon":-73.86505,"location_type":null,"parent_station":"A57","borough":"brooklyn","daytime_routes":["A"]},"401":{"id":"401","name":"Woodlawn","lat":40.886037,"lon":-73.878751,"location_type":null,"parent_station":"401","borough":"bronx","daytime_routes":["4"]},"R32":{"id":"R32","name":"Union St","lat":40.677316,"lon":-73.98311,"location_type":null,"parent_station":"R32","borough":"brooklyn","daytime_routes":["R"]},"H07":{"id":"H07","name":"Beach 60 St","lat":40.592374,"lon":-73.788522,"location_type":null,"parent_station":"H07","borough":"queens","daytime_routes":["A"]},"R23":{"id":"R23","name":"Canal St","lat":40.719527,"lon":-74.001775,"location_type":null,"parent_station":"R23","borough":"manhattan","daytime_routes":["R","W"]},"M08":{"id":"M08","name":"Myrtle-Wyckoff Avs","lat":40.69943,"lon":-73.912385,"location_type":null,"parent_station":"M08","borough":"brooklyn","daytime_routes":["M"]},"233":{"id":"233","name":"Hoyt St","lat":40.690545,"lon":-73.985065,"location_type":null,"parent_station":"233","borough":"brooklyn","daytime_routes":["2","3"]},"136":{"id":"136","name":"Franklin St","lat":40.719318,"lon":-74.006886,"location_type":null,"parent_station":"136","borough":"manhattan","daytime_routes":["1"]},"D32":{"id":"D32","name":"Avenue H","lat":40.62927,"lon":-73.961639,"location_type":null,"parent_station":"D32","borough":"brooklyn","daytime_routes":["Q"]},"637":{"id":"637","name":"Bleecker St","lat":40.725915,"lon":-73.994659,"location_type":null,"parent_station":"637","borough":"manhattan","daytime_routes":["6"]},"A02":{"id":"A02","name":"Inwood-207 St","lat":40.868072,"lon":-73.919899,"location_type":null,"parent_station":"A02","borough":"manhattan","daytime_routes":["A"]},"G10":{"id":"G10","name":"63 Dr-Rego Park","lat":40.729846,"lon":-73.861604,"location_type":null,"parent_station":"G10","borough":"queens","daytime_routes":["M","R"]},"701":{"id":"701","name":"Flushing-Main St","lat":40.7596,"lon":-73.83003,"location_type":null,"parent_station":"701","borough":"queens","daytime_routes":["7"]},"A11":{"id":"A11","name":"155 St","lat":40.830518,"lon":-73.941514,"location_type":null,"parent_station":"A11","borough":"manhattan","daytime_routes":["C"]},"A47":{"id":"A47","name":"Kingston-Throop Avs","lat":40.679921,"lon":-73.940858,"location_type":null,"parent_station":"A47","borough":"brooklyn","daytime_routes":["C"]},"N04":{"id":"N04","name":"New Utrecht Av","lat":40.624842,"lon":-73.996353,"location_type":null,"parent_station":"N04","borough":"brooklyn","daytime_routes":["N"]},"M04":{"id":"M04","name":"Fresh Pond Rd","lat":40.706186,"lon":-73.895877,"location_type":null,"parent_station":"M04","borough":"queens","daytime_routes":["M"]},"F24":{"id":"F24","name":"7 Av","lat":40.666271,"lon":-73.980305,"location_type":null,"parent_station":"F24","borough":"brooklyn","daytime_routes":["F","G"]},"118":{"id":"118","name":"Cathedral Pkwy (110 St)","lat":40.803967,"lon":-73.966847,"location_type":null,"parent_station":"118","borough":"manhattan","daytime_routes":["1"]},"F27":{"id":"F27","name":"Church Av","lat":40.644041,"lon":-73.979678,"location_type":null,"parent_station":"F27","borough":"brooklyn","daytime_routes":["F","G"]},"726":{"id":"726","name":"34 St-Hudson Yards","lat":40.755882,"lon":-74.00191,"location_type":null,"parent_station":"726","borough":"manhattan","daytime_routes":["7"]},"H04":{"id":"H04","name":"Broad Channel","lat":40.608382,"lon":-73.815925,"location_type":null,"parent_station":"H04","borough":"queens","daytime_routes":["A","Sr"]},"S04":{"id":"S04","name":"Botanic Garden","lat":40.670343,"lon":-73.959245,"location_type":null,"parent_station":"S04","borough":"brooklyn","daytime_routes":["Sf"]},"G33":{"id":"G33","name":"Bedford-Nostrand Avs","lat":40.689627,"lon":-73.953522,"location_type":null,"parent_station":"G33","borough":"brooklyn","daytime_routes":["G"]},"L12":{"id":"L12","name":"Grand St","lat":40.711926,"lon":-73.94067,"location_type":null,"parent_station":"L12","borough":"brooklyn","daytime_routes":["L"]},"405":{"id":"405","name":"Bedford Park Blvd-Lehman College","lat":40.873412,"lon":-73.890064,"location_type":null,"parent_station":"405","borough":"bronx","daytime_routes":["4"]},"S21":{"id":"S21","name":"Oakwood Heights","lat":40.56511,"lon":-74.12632,"location_type":null,"parent_station":"S21","borough":"staten_island","daytime_routes":["Si"]},"A09":{"id":"A09","name":"168 St","lat":40.840719,"lon":-73.939561,"location_type":null,"parent_station":"A09","borough":"manhattan","daytime_routes":["C","A"]},"F31":{"id":"F31","name":"Avenue I","lat":40.625322,"lon":-73.976127,"location_type":null,"parent_station":"F31","borough":"brooklyn","daytime_routes":["F"]},"A07":{"id":"A07","name":"175 St","lat":40.847391,"lon":-73.939704,"location_type":null,"parent_station":"A07","borough":"manhattan","daytime_routes":["A"]},"228":{"id":"228","name":"Park Place","lat":40.713051,"lon":-74.008811,"location_type":null,"parent_station":"228","borough":"manhattan","daytime_routes":["2","3"]},"R04":{"id":"R04","name":"30 Av","lat":40.766779,"lon":-73.921479,"location_type":null,"parent_station":"R04","borough":"queens","daytime_routes":["W","N"]},"M19":{"id":"M19","name":"Bowery","lat":40.72028,"lon":-73.993915,"location_type":null,"parent_station":"M19","borough":"manhattan","daytime_routes":["J","Z"]},"S11":{"id":"S11","name":"Arthur Kill","lat":40.516578,"lon":-74.242096,"location_type":null,"parent_station":"S11","borough":"staten_island","daytime_routes":["Si"]},"R34":{"id":"R34","name":"Prospect Av","lat":40.665414,"lon":-73.992872,"location_type":null,"parent_station":"R34","borough":"brooklyn","daytime_routes":["R"]},"G36":{"id":"G36","name":"Fulton St","lat":40.687119,"lon":-73.975375,"location_type":null,"parent_station":"G36","borough":"brooklyn","daytime_routes":["G"]},"D25":{"id":"D25","name":"7 Av","lat":40.67705,"lon":-73.972367,"location_type":null,"parent_station":"D25","borough":"brooklyn","daytime_routes":["Q","B"]},"L15":{"id":"L15","name":"Jefferson St","lat":40.706607,"lon":-73.922913,"location_type":null,"parent_station":"L15","borough":"brooklyn","daytime_routes":["L"]},"A64":{"id":"A64","name":"111 St","lat":40.684331,"lon":-73.832163,"location_type":null,"parent_station":"A64","borough":"queens","daytime_routes":["A"]},"A55":{"id":"A55","name":"Euclid Av","lat":40.675377,"lon":-73.872106,"location_type":null,"parent_station":"A55","borough":"brooklyn","daytime_routes":["C","A"]},"A53":{"id":"A53","name":"Van Siclen Av","lat":40.67271,"lon":-73.890358,"location_type":null,"parent_station":"A53","borough":"brooklyn","daytime_routes":["C"]},"R22":{"id":"R22","name":"Prince St","lat":40.724329,"lon":-73.997702,"location_type":null,"parent_station":"R22","borough":"manhattan","daytime_routes":["R","W"]},"R18":{"id":"R18","name":"28 St","lat":40.745494,"lon":-73.988691,"location_type":null,"parent_station":"R18","borough":"manhattan","daytime_routes":["R","W"]},"253":{"id":"253","name":"Rockaway Av","lat":40.662549,"lon":-73.908946,"location_type":null,"parent_station":"253","borough":"brooklyn","daytime_routes":["3"]},"302":{"id":"302","name":"145 St","lat":40.820421,"lon":-73.936245,"location_type":null,"parent_station":"302","borough":"manhattan","daytime_routes":["3"]},"503":{"id":"503","name":"Gun Hill Rd","lat":40.869526,"lon":-73.846384,"location_type":null,"parent_station":"503","borough":"bronx","daytime_routes":["5"]},"D35":{"id":"D35","name":"Kings Hwy","lat":40.60867,"lon":-73.957734,"location_type":null,"parent_station":"D35","borough":"brooklyn","daytime_routes":["Q","B"]},"716":{"id":"716","name":"33 St-Rawson St","lat":40.744587,"lon":-73.930997,"location_type":null,"parent_station":"716","borough":"queens","daytime_routes":["7"]},"247":{"id":"247","name":"Flatbush Av-Brooklyn College","lat":40.632836,"lon":-73.947642,"location_type":null,"parent_station":"247","borough":"brooklyn","daytime_routes":["2","5"]},"B14":{"id":"B14","name":"50 St","lat":40.63626,"lon":-73.994791,"location_type":null,"parent_station":"B14","borough":"brooklyn","daytime_routes":["D"]},"L05":{"id":"L05","name":"3 Av","lat":40.732849,"lon":-73.986122,"location_type":null,"parent_station":"L05","borough":"manhattan","daytime_routes":["L"]},"124":{"id":"124","name":"66 St-Lincoln Center","lat":40.77344,"lon":-73.982209,"location_type":null,"parent_station":"124","borough":"manhattan","daytime_routes":["1"]},"705":{"id":"705","name":"111 St","lat":40.75173,"lon":-73.855334,"location_type":null,"parent_station":"705","borough":"queens","daytime_routes":["7"]},"R44":{"id":"R44","name":"86 St","lat":40.622687,"lon":-74.028398,"location_type":null,"parent_station":"R44","borough":"brooklyn","daytime_routes":["R"]},"D17":{"id":"D17","name":"34 St-Herald Sq","lat":40.749719,"lon":-73.987823,"location_type":null,"parent_station":"D17","borough":"manhattan","daytime_routes":["M","F","B","D"]},"A24":{"id":"A24","name":"59 St-Columbus Circle","lat":40.768296,"lon":-73.981736,"location_type":null,"parent_station":"A24","borough":"manhattan","daytime_routes":["C","A","B","D"]},"B23":{"id":"B23","name":"Bay 50 St","lat":40.588841,"lon":-73.983765,"location_type":null,"parent_station":"B23","borough":"brooklyn","daytime_routes":["D"]},"111":{"id":"111","name":"181 St","lat":40.849505,"lon":-73.933596,"location_type":null,"parent_station":"111","borough":"manhattan","daytime_routes":["1"]},"249":{"id":"249","name":"Kingston Av","lat":40.669399,"lon":-73.942161,"location_type":null,"parent_station":"249","borough":"brooklyn","daytime_routes":["3"]},"R05":{"id":"R05","name":"Broadway","lat":40.76182,"lon":-73.925508,"location_type":null,"parent_station":"R05","borough":"queens","daytime_routes":["W","N"]},"F21":{"id":"F21","name":"Carroll St","lat":40.680303,"lon":-73.995048,"location_type":null,"parent_station":"F21","borough":"brooklyn","daytime_routes":["F","G"]},"225":{"id":"225","name":"125 St","lat":40.807754,"lon":-73.945495,"location_type":null,"parent_station":"225","borough":"manhattan","daytime_routes":["2","3"]},"S03":{"id":"S03","name":"Park Pl","lat":40.674772,"lon":-73.957624,"location_type":null,"parent_station":"S03","borough":"brooklyn","daytime_routes":["Sf"]},"B06":{"id":"B06","name":"Roosevelt Island","lat":40.759145,"lon":-73.95326,"location_type":null,"parent_station":"B06","borough":"manhattan","daytime_routes":["M"]},"F06":{"id":"F06","name":"Kew Gardens-Union Tpke","lat":40.714441,"lon":-73.831008,"location_type":null,"parent_station":"F06","borough":"queens","daytime_routes":["F","E"]},"F07":{"id":"F07","name":"75 Av","lat":40.718331,"lon":-73.837324,"location_type":null,"parent_station":"F07","borough":"queens","daytime_routes":["F","E"]},"901":{"id":"901","name":"Grand Central-42 St","lat":40.752769,"lon":-73.979189,"location_type":null,"parent_station":"901","borough":"manhattan","daytime_routes":["S"]},"A17":{"id":"A17","name":"Cathedral Pkwy (110 St)","lat":40.800603,"lon":-73.958161,"location_type":null,"parent_station":"A17","borough":"manhattan","daytime_routes":["C","B"]},"L26":{"id":"L26","name":"Livonia Av","lat":40.664038,"lon":-73.900571,"location_type":null,"parent_station":"L26","borough":"brooklyn","daytime_routes":["L"]},"L03":{"id":"L03","name":"14 St-Union Sq","lat":40.734789,"lon":-73.99073,"location_type":null,"parent_station":"L03","borough":"manhattan","daytime_routes":["L"]},"420":{"id":"420","name":"Bowling Green","lat":40.704817,"lon":-74.014065,"location_type":null,"parent_station":"420","borough":"manhattan","daytime_routes":["4","5"]},"234":{"id":"234","name":"Nevins St","lat":40.688246,"lon":-73.980492,"location_type":null,"parent_station":"234","borough":"brooklyn","daytime_routes":["2","3","4","5"]},"130":{"id":"130","name":"23 St","lat":40.744081,"lon":-73.995657,"location_type":null,"parent_station":"130","borough":"manhattan","daytime_routes":["1"]},"A38":{"id":"A38","name":"Fulton St","lat":40.710197,"lon":-74.007691,"location_type":null,"parent_station":"A38","borough":"manhattan","daytime_routes":["C","A"]},"A48":{"id":"A48","name":"Utica Av","lat":40.679364,"lon":-73.930729,"location_type":null,"parent_station":"A48","borough":"brooklyn","daytime_routes":["C","A"]},"107":{"id":"107","name":"215 St","lat":40.869444,"lon":-73.915279,"location_type":null,"parent_station":"107","borough":"manhattan","daytime_routes":["1"]},"239":{"id":"239","name":"Franklin Av-Medgar Evers College","lat":40.670682,"lon":-73.958131,"location_type":null,"parent_station":"239","borough":"brooklyn","daytime_routes":["2","3","4","5"]},"L10":{"id":"L10","name":"Lorimer St","lat":40.714063,"lon":-73.950275,"location_type":null,"parent_station":"L10","borough":"brooklyn","daytime_routes":["L"]},"R25":{"id":"R25","name":"Cortlandt St","lat":40.710668,"lon":-74.011029,"location_type":null,"parent_station":"R25","borough":"manhattan","daytime_routes":["R","W"]},"R06":{"id":"R06","name":"36 Av","lat":40.756804,"lon":-73.929575,"location_type":null,"parent_station":"R06","borough":"queens","daytime_routes":["W","N"]},"D18":{"id":"D18","name":"23 St","lat":40.742878,"lon":-73.992821,"location_type":null,"parent_station":"D18","borough":"manhattan","daytime_routes":["M","F"]},"A60":{"id":"A60","name":"88 St","lat":40.679843,"lon":-73.85147,"location_type":null,"parent_station":"A60","borough":"queens","daytime_routes":["A"]},"635":{"id":"635","name":"14 St-Union Sq","lat":40.734673,"lon":-73.989951,"location_type":null,"parent_station":"635","borough":"manhattan","daytime_routes":["4","5","6"]},"132":{"id":"132","name":"14 St","lat":40.737826,"lon":-74.000201,"location_type":null,"parent_station":"132","borough":"manhattan","daytime_routes":["1","2","3"]},"235":{"id":"235","name":"Atlantic Av-Barclays Ctr","lat":40.684359,"lon":-73.977666,"location_type":null,"parent_station":"235","borough":"brooklyn","daytime_routes":["2","3","4","5"]},"A36":{"id":"A36","name":"Chambers St","lat":40.714111,"lon":-74.008585,"location_type":null,"parent_station":"A36","borough":"manhattan","daytime_routes":["C","A"]},"A21":{"id":"A21","name":"81 St-Museum of Natural History","lat":40.781433,"lon":-73.972143,"location_type":null,"parent_station":"A21","borough":"manhattan","daytime_routes":["C","B"]},"D29":{"id":"D29","name":"Beverley Rd","lat":40.644031,"lon":-73.964492,"location_type":null,"parent_station":"D29","borough":"brooklyn","daytime_routes":["Q"]},"602":{"id":"602","name":"Buhre Av","lat":40.84681,"lon":-73.832569,"location_type":null,"parent_station":"602","borough":"bronx","daytime_routes":["6"]},"128":{"id":"128","name":"34 St-Penn Station","lat":40.750373,"lon":-73.991057,"location_type":null,"parent_station":"128","borough":"manhattan","daytime_routes":["1","2","3"]},"207":{"id":"207","name":"219 St","lat":40.883895,"lon":-73.862633,"location_type":null,"parent_station":"207","borough":"bronx","daytime_routes":["2","5"]},"L16":{"id":"L16","name":"DeKalb Av","lat":40.703811,"lon":-73.918425,"location_type":null,"parent_station":"L16","borough":"brooklyn","daytime_routes":["L"]},"103":{"id":"103","name":"238 St","lat":40.884667,"lon":-73.90087,"location_type":null,"parent_station":"103","borough":"bronx","daytime_routes":["1"]},"R45":{"id":"R45","name":"Bay Ridge-95 St","lat":40.616622,"lon":-74.030876,"location_type":null,"parent_station":"R45","borough":"brooklyn","daytime_routes":["R"]},"D21":{"id":"D21","name":"Broadway-Lafayette St","lat":40.725297,"lon":-73.996204,"location_type":null,"parent_station":"D21","borough":"manhattan","daytime_routes":["M","F","B","D"]},"F23":{"id":"F23","name":"4 Av-9 St","lat":40.670272,"lon":-73.989779,"location_type":null,"parent_station":"F23","borough":"brooklyn","daytime_routes":["F","G"]},"J24":{"id":"J24","name":"Alabama Av","lat":40.676992,"lon":-73.898654,"location_type":null,"parent_station":"J24","borough":"brooklyn","daytime_routes":["J","Z"]},"J21":{"id":"J21","name":"Norwood Av","lat":40.68141,"lon":-73.880039,"location_type":null,"parent_station":"J21","borough":"brooklyn","daytime_routes":["J","Z"]},"Q05":{"id":"Q05","name":"96 St","lat":40.784318,"lon":-73.947152,"location_type":null,"parent_station":"Q05","borough":"manhattan","daytime_routes":["Q"]},"L11":{"id":"L11","name":"Graham Av","lat":40.714565,"lon":-73.944053,"location_type":null,"parent_station":"L11","borough":"brooklyn","daytime_routes":["L"]},"B16":{"id":"B16","name":"62 St","lat":40.626472,"lon":-73.996895,"location_type":null,"parent_station":"B16","borough":"brooklyn","daytime_routes":["D"]},"G31":{"id":"G31","name":"Flushing Av","lat":40.700377,"lon":-73.950234,"location_type":null,"parent_station":"G31","borough":"brooklyn","daytime_routes":["G"]},"A22":{"id":"A22","name":"72 St","lat":40.775594,"lon":-73.97641,"location_type":null,"parent_station":"A22","borough":"manhattan","daytime_routes":["C","B"]},"H02":{"id":"H02","name":"Aqueduct-N Conduit Av","lat":40.668234,"lon":-73.834058,"location_type":null,"parent_station":"H02","borough":"queens","daytime_routes":["A"]},"D14":{"id":"D14","name":"7 Av","lat":40.762862,"lon":-73.981637,"location_type":null,"parent_station":"D14","borough":"manhattan","daytime_routes":["B","D","E"]},"628":{"id":"628","name":"68 St-Hunter College","lat":40.768141,"lon":-73.96387,"location_type":null,"parent_station":"628","borough":"manhattan","daytime_routes":["6"]},"101":{"id":"101","name":"Van Cortlandt Park-242 St","lat":40.889248,"lon":-73.898583,"location_type":null,"parent_station":"101","borough":"bronx","daytime_routes":["1"]},"D34":{"id":"D34","name":"Avenue M","lat":40.617618,"lon":-73.959399,"location_type":null,"parent_station":"D34","borough":"brooklyn","daytime_routes":["Q"]},"214":{"id":"214","name":"West Farms Sq-E Tremont Av","lat":40.840295,"lon":-73.880049,"location_type":null,"parent_station":"214","borough":"bronx","daytime_routes":["2","5"]},"D09":{"id":"D09","name":"170 St","lat":40.839306,"lon":-73.9134,"location_type":null,"parent_station":"D09","borough":"bronx","daytime_routes":["B","D"]},"608":{"id":"608","name":"Parkchester","lat":40.833226,"lon":-73.860816,"location_type":null,"parent_station":"608","borough":"bronx","daytime_routes":["6"]},"622":{"id":"622","name":"116 St","lat":40.798629,"lon":-73.941617,"location_type":null,"parent_station":"622","borough":"manhattan","daytime_routes":["6"]},"J15":{"id":"J15","name":"Woodhaven Blvd","lat":40.693879,"lon":-73.851576,"location_type":null,"parent_station":"J15","borough":"queens","daytime_routes":["J","Z"]},"216":{"id":"216","name":"Freeman St","lat":40.829993,"lon":-73.891865,"location_type":null,"parent_station":"216","borough":"bronx","daytime_routes":["2","5"]},"134":{"id":"134","name":"Houston St","lat":40.728251,"lon":-74.005367,"location_type":null,"parent_station":"134","borough":"manhattan","daytime_routes":["1"]},"706":{"id":"706","name":"103 St-Corona Plaza","lat":40.749865,"lon":-73.8627,"location_type":null,"parent_station":"706","borough":"queens","daytime_routes":["7"]},"M13":{"id":"M13","name":"Lorimer St","lat":40.703869,"lon":-73.947408,"location_type":null,"parent_station":"M13","borough":"brooklyn","daytime_routes":["M","J"]},"F33":{"id":"F33","name":"Avenue N","lat":40.61514,"lon":-73.974197,"location_type":null,"parent_station":"F33","borough":"brooklyn","daytime_routes":["F"]},"629":{"id":"629","name":"59 St","lat":40.762526,"lon":-73.967967,"location_type":null,"parent_station":"629","borough":"manhattan","daytime_routes":["4","5","6"]},"626":{"id":"626","name":"86 St","lat":40.779492,"lon":-73.955589,"location_type":null,"parent_station":"626","borough":"manhattan","daytime_routes":["4","5","6"]},"227":{"id":"227","name":"110 St-Malcolm X Plaza","lat":40.799075,"lon":-73.951822,"location_type":null,"parent_station":"227","borough":"manhattan","daytime_routes":["2","3"]},"710":{"id":"710","name":"74 St-Broadway","lat":40.746848,"lon":-73.891394,"location_type":null,"parent_station":"710","borough":"queens","daytime_routes":["7"]},"D27":{"id":"D27","name":"Parkside Av","lat":40.655292,"lon":-73.961495,"location_type":null,"parent_station":"D27","borough":"brooklyn","daytime_routes":["Q"]},"D43":{"id":"D43","name":"Coney Island-Stillwell Av","lat":40.577422,"lon":-73.981233,"location_type":null,"parent_station":"D43","borough":"brooklyn","daytime_routes":["Q","F","D","N"]},"R26":{"id":"R26","name":"Rector St","lat":40.70722,"lon":-74.013342,"location_type":null,"parent_station":"R26","borough":"manhattan","daytime_routes":["R","W"]},"238":{"id":"238","name":"Eastern Pkwy-Brooklyn Museum","lat":40.671987,"lon":-73.964375,"location_type":null,"parent_station":"238","borough":"brooklyn","daytime_routes":["2","3"]},"D39":{"id":"D39","name":"Sheepshead Bay","lat":40.586896,"lon":-73.954155,"location_type":null,"parent_station":"D39","borough":"brooklyn","daytime_routes":["Q","B"]},"712":{"id":"712","name":"61 St-Woodside","lat":40.74563,"lon":-73.902984,"location_type":null,"parent_station":"712","borough":"queens","daytime_routes":["7"]},"609":{"id":"609","name":"St Lawrence Av","lat":40.831509,"lon":-73.867618,"location_type":null,"parent_station":"609","borough":"bronx","daytime_routes":["6"]},"113":{"id":"113","name":"157 St","lat":40.834041,"lon":-73.94489,"location_type":null,"parent_station":"113","borough":"manhattan","daytime_routes":["1"]},"G19":{"id":"G19","name":"Steinway St","lat":40.756879,"lon":-73.92074,"location_type":null,"parent_station":"G19","borough":"queens","daytime_routes":["M","R"]},"N10":{"id":"N10","name":"86 St","lat":40.592721,"lon":-73.97823,"location_type":null,"parent_station":"N10","borough":"brooklyn","daytime_routes":["N"]},"J17":{"id":"J17","name":"75 St-Elderts Ln","lat":40.691324,"lon":-73.867139,"location_type":null,"parent_station":"J17","borough":"queens","daytime_routes":["J","Z"]},"H09":{"id":"H09","name":"Beach 36 St","lat":40.595398,"lon":-73.768175,"location_type":null,"parent_station":"H09","borough":"queens","daytime_routes":["A"]},"123":{"id":"123","name":"72 St","lat":40.778453,"lon":-73.98197,"location_type":null,"parent_station":"123","borough":"manhattan","daytime_routes":["1","2","3"]},"R16":{"id":"R16","name":"Times Sq-42 St","lat":40.754672,"lon":-73.986754,"location_type":null,"parent_station":"R16","borough":"manhattan","daytime_routes":["Q","R","W","N"]},"F20":{"id":"F20","name":"Bergen St","lat":40.686145,"lon":-73.990862,"location_type":null,"parent_station":"F20","borough":"brooklyn","daytime_routes":["F","G"]},"A41":{"id":"A41","name":"Jay St-MetroTech","lat":40.692338,"lon":-73.987342,"location_type":null,"parent_station":"A41","borough":"brooklyn","daytime_routes":["C","A","F"]},"633":{"id":"633","name":"28 St","lat":40.74307,"lon":-73.984264,"location_type":null,"parent_station":"633","borough":"manhattan","daytime_routes":["6"]},"601":{"id":"601","name":"Pelham Bay Park","lat":40.852462,"lon":-73.828121,"location_type":null,"parent_station":"601","borough":"bronx","daytime_routes":["6"]},"F01":{"id":"F01","name":"Jamaica-179 St","lat":40.712646,"lon":-73.783817,"location_type":null,"parent_station":"F01","borough":"queens","daytime_routes":["F"]},"L14":{"id":"L14","name":"Morgan Av","lat":40.706152,"lon":-73.933147,"location_type":null,"parent_station":"L14","borough":"brooklyn","daytime_routes":["L"]}},"trips":{"headsigns":{"A..S16R":"Far Rockaway-Mott Av","N..N31R":"Astoria-Ditmars Blvd","4..S36R":"Crown Hts-Utica Av","5..S07R":"Crown Hts-Utica Av","A..S78R":"Rockaway Park-Beach 116 St","5..S12R":"Bowling Green","R..N96R":"Forest Hills-71 Av","4..N14R":"Woodlawn","5..N84R":"E 180 St","B..N65R":"Bedford Park Blvd","3..S03R":"New Lots Av","7..S37R":"34 St-Hudson Yards","D..S05R":"Coney Island-Stillwell Av","A..S51R":"Euclid Av","A..S43R":"Ozone Park-Lefferts Blvd","D..N14R":"Norwood-205 St","N..N70R":"Astoria-Ditmars Blvd","5..N01R":"Eastchester-Dyre Av","R..N27R":"Whitehall St-South Ferry","F..N65R":"Jamaica-179 St","2..N08R":"Wakefield-241 St","7..N26R":"Flushing-Main St","C..N04R":"168 St","E..N75R":"Jamaica Center-Parsons/Archer","N..N20R":"Astoria-Ditmars Blvd","5..S06R":"Crown Hts-Utica Av","1..S04R":"South Ferry","N..N72R":"Astoria-Ditmars Blvd","6..N03R":"Parkchester","R..S71R":"Bay Ridge-95 St","4..N03R":"Woodlawn","A..N85R":"168 St","D..N05R":"Norwood-205 St","N..N33R":"Astoria-Ditmars Blvd","J..N49R":"Jamaica Center-Parsons/Archer","E..N72X004":"Jamaica Center-Parsons/Archer","SI..N16R":"St George","F..S69R":"Coney Island-Stillwell Av","G..N13R":"Court Sq","3..S88R":"34 St-Penn Station","5..N60R":"Eastchester-Dyre Av","1..N14R":"215 St","J..N45R":"Jamaica Center-Parsons/Archer","N..S72R":"Whitehall St-South Ferry","A..N82R":"Dyckman St","G..N14R":"Court Sq","4..N64R":"Bedford Park Blvd-Lehman College","N..N34R":"Astoria-Ditmars Blvd","D..S07R":"Coney Island-Stillwell Av","N..N23R":"Astoria-Ditmars Blvd","A..S57R":"Ozone Park-Lefferts Blvd","J..N60R":"Jamaica Center-Parsons/Archer","D..S14R":"Coney Island-Stillwell Av","E..S04R":"World Trade Center","A..N04R":"Inwood-207 St","6..S03R":"Brooklyn Bridge-City Hall","4..S34R":"Crown Hts-Utica Av","FS.S01R":"Prospect Park","F..S79R":"Kings Hwy","J..S15R":"Broad St","2..S03R":"New Lots Av","2..S08R":"Flatbush Av-Brooklyn College","N..S16R":"Coney Island-Stillwell Av","1..N10R":"137 St-City College","2..S05R":"Flatbush Av-Brooklyn College","J..N47R":"Jamaica Center-Parsons/Archer","4..S05R":"Crown Hts-Utica Av","F..S78X001":"Coney Island-Stillwell Av","N..S74R":"Bay Pkwy","5..N86R":"Nereid Av","5..N73R":"Eastchester-Dyre Av","3..N56R":"135 St","4..S28R":"Crown Hts-Utica Av","D..S78R":"Coney Island-Stillwell Av","Q..S37R":"Brighton Beach","4..N06R":"Woodlawn","F..N81X001":"Jamaica-179 St","5..N75R":"Eastchester-Dyre Av","5..N70R":"Nereid Av","M..N37R":"Delancey St-Essex St","J..S13R":"Broad St","A..N43R":"Euclid Av","5..S09R":"Flatbush Av-Brooklyn College","A..N37R":"Euclid Av","GS.N01R":"Times Sq-42 St","5..S01R":"E 180 St","Q..S36R":"Coney Island-Stillwell Av","M..N24R":"Forest Hills-71 Av","5..S11R":"Bowling Green","7..S38R":"34 St-Hudson Yards","4..N02R":"Woodlawn","E..S56R":"World Trade Center","B..N60R":"Kingsbridge Rd","5..S21R":"Crown Hts-Utica Av","R..S27R":"Bay Ridge-95 St","4..S41R":"Crown Hts-Utica Av","N..S36R":"Coney Island-Stillwell Av","N..S31R":"Coney Island-Stillwell Av","G..N16R":"Court Sq","GS.S04R":"Grand Central-42 St","7..N96R":"Mets-Willets Point","D..S08X007":"Bay Pkwy","5..N71R":"Eastchester-Dyre Av","G..S16R":"Church Av","F..S20R":"Coney Island-Stillwell Av","J..S12R":"Broad St","6..S01R":"Brooklyn Bridge-City Hall","E..N05R":"Jamaica Center-Parsons/Archer","1..S12R":"South Ferry","L..N01R":"8 Av","2..N01R":"Wakefield-241 St","E..S69R":"World Trade Center","L..S05R":"Myrtle-Wyckoff Avs","J..N41R":"Jamaica Center-Parsons/Archer","5..N66R":"Eastchester-Dyre Av","A..S70R":"Ozone Park-Lefferts Blvd","5..N85R":"Gun Hill Rd","5..S44R":"Flatbush Av-Brooklyn College","C..S04R":"Euclid Av","E..N57R":"Jamaica-179 St","6..S02R":"Brooklyn Bridge-City Hall","2..S06R":"New Lots Av","A..S53R":"Far Rockaway-Mott Av","M..N35R":"Myrtle Av","5..N62R":"Eastchester-Dyre Av","3..N42R":"Harlem-148 St","M..S24R":"Middle Village-Metropolitan Av","E..S71R":"World Trade Center","3..N90R":"Harlem-148 St","5..S14R":"Bowling Green","6..S06R":"Brooklyn Bridge-City Hall","M..S25R":"Middle Village-Metropolitan Av","6..N06R":"3 Av-138 St","5..N67R":"E 180 St","1..S11R":"South Ferry","N..S27R":"Coney Island-Stillwell Av","4..S06R":"Crown Hts-Utica Av","5..N76R":"Nereid Av","A..S87R":"Rockaway Park-Beach 116 St","D..N64X001":"Norwood-205 St","J..S16R":"Broad St","N..S20R":"Coney Island-Stillwell Av","4..N34R":"Woodlawn","4..N13R":"Woodlawn","A..N58R":"Euclid Av","Q..N36R":"96 St","4..S01R":"New Lots Av","J..N43R":"Broadway Junction","H..S21R":"Rockaway Park-Beach 116 St","M..S30R":"Middle Village-Metropolitan Av","B..S66R":"Brighton Beach","R..N93R":"Forest Hills-71 Av","5..N89R":"Eastchester-Dyre Av","2..N03R":"Wakefield-241 St","SI..N28R":"St George","L..S01R":"Canarsie-Rockaway Pkwy","F..N82R":"Jamaica-179 St","M..N25R":"Delancey St-Essex St","5..N32R":"Eastchester-Dyre Av","H..N21R":"Broad Channel","4..N43R":"Burnside Av","B..N66R":"145 St","A..S58R":"Far Rockaway-Mott Av","5..S42R":"Bowling Green","A..N65R":"Inwood-207 St","SI..S07R":"Tottenville","5..N87R":"Eastchester-Dyre Av","7..N97R":"Flushing-Main St","7..S35R":"34 St-Hudson Yards","Q..S19R":"Coney Island-Stillwell Av","Q..N39R":"96 St","5..N65R":"E 180 St","4..S13R":"New Lots Av","5..S08R":"Bowling Green","R..S36R":"Bay Ridge-95 St","Q..S39R":"Coney Island-Stillwell Av","A..N60R":"Dyckman St","5..N88R":"Eastchester-Dyre Av","D..N07R":"Norwood-205 St","J..N40R":"Jamaica Center-Parsons/Archer","SI..S03R":"Tottenville","N..N16R":"96 St","Q..S16R":"Coney Island-Stillwell Av","5..S32R":"E 180 St","R..S96R":"Bay Pkwy","3..S01R":"New Lots Av","F..S07R":"Coney Island-Stillwell Av","4..S37R":"Bowling Green","FS.N01R":"Franklin Av","F..N69R":"Jamaica-179 St","1..N03R":"Van Cortlandt Park-242 St","5..S45R":"Flatbush Av-Brooklyn College","4..N01R":"Woodlawn","4..S39R":"Crown Hts-Utica Av","5..S04R":"Flatbush Av-Brooklyn College","4..N56R":"Bedford Park Blvd-Lehman College","F..N81R":"Jamaica-179 St","G..S14R":"Church Av","M..N30R":"Myrtle Av","6..S08R":"Brooklyn Bridge-City Hall","E..N55R":"Jamaica-179 St","A..S56R":"Far Rockaway-Mott Av","SI..N03R":"St George","5..S46R":"Bowling Green","3..N01R":"Harlem-148 St","A..N55R":"Inwood-207 St","5..S15R":"Crown Hts-Utica Av","A..N54R":"Inwood-207 St","F..N81X002":"Jamaica-179 St","A..N09R":"Inwood-207 St","N..S34R":"Coney Island-Stillwell Av","C..S05R":"Euclid Av","R..N76R":"96 St","5..S03R":"Flatbush Av-Brooklyn College","R..N78R":"Queens Plaza","L..N05R":"8 Av","6..N02R":"Pelham Bay Park","7..S36R":"34 St-Hudson Yards","A..S05R":"Ozone Park-Lefferts Blvd","2..S07R":"Flatbush Av-Brooklyn College","F..N07R":"Jamaica-179 St","4..S03R":"New Lots Av","7..N98R":"Mets-Willets Point","SI..S02R":"Great Kills","M..S37R":"Middle Village-Metropolitan Av","4..S35R":"Bowling Green","E..N66R":"Jamaica Center-Parsons/Archer","2..S01R":"Flatbush Av-Brooklyn College","F..N20R":"Jamaica-179 St","B..S65R":"Brighton Beach","5..S02R":"Flatbush Av-Brooklyn College","GS.S01R":"Grand Central-42 St","6..N01R":"Pelham Bay Park","F..N79R":"Jamaica-179 St","N..N35R":"Astoria-Ditmars Blvd","A..S74R":"Far Rockaway-Mott Av","M..S35R":"Middle Village-Metropolitan Av","F..S78X002":"Church Av","Q..N16R":"96 St","A..N18R":"Dyckman St","Q..N19R":"96 St","N..S70R":"86 St","J..S54R":"Broad St","N..S42R":"Coney Island-Stillwell Av","F..S78R":"Coney Island-Stillwell Av","A..S37R":"Ozone Park-Lefferts Blvd","SI..N02R":"St George","6..N03X021":"Parkchester","L..N02R":"8 Av","GS.N04R":"Times Sq-42 St","1..S03R":"South Ferry","E..N72R":"Jamaica Center-Parsons/Archer","F..S74R":"Coney Island-Stillwell Av"},"routes":{"AFA25GEN-6031-Sunday-00_072250_6..N01R":"6","L0S1-F-1080-S100_023950_F..S20R":"F","AFA25GEN-6034-Saturday-00_084150_6..S01R":"6","L0S1-D-1084-S02_142550_D..N05R":"D","L0S1-F-1080-S100_038700_F..S78X002":"F","AFA25GEN-5113-Weekday-00_048000_5..N71R":"5","BFA25GEN-C028-Sunday-00_127200_C..N04R":"C","AFA25GEN-2042-Saturday-00_009900_2..S08R":"2","BFA25GEN-A087-Weekday-00_052300_A..N55R":"A","L0S3-D-3043-S22_103750_D..S07R":"D","BFA25GEN-F045-Saturday-00_099300_F..S69R":"F","BFA25GEN-Q071-Weekday-00_084550_Q..S36R":"Q","AFA25GEN-1039-Saturday-00_147100_1..N03R":"1","AFA25GEN-6031-Sunday-00_025250_6..N01R":"6","AFA25GEN-6091-Weekday-00_092000_6..S01R":"6","AFA25GEN-6091-Weekday-00_061800_6..S02R":"6X","L0S1-M-1093-S100_087250_M..N24R":"M","L0S1-F-1080-S100_111750_F..N79R":"F","AFA25GEN-4104-Weekday-00_098600_4..S28R":"4","AFA25GEN-4104-Weekday-00_114400_4..S06R":"4","L0S1-J-1056-S12_045150_J..S16R":"Z","BFA25GEN-L053-Weekday-00_082350_L..N01R":"L","BFA25GEN-M028-Saturday-00_091600_M..N37R":"M","BFA25GEN-E049-Sunday-00_096750_E..N72R":"E","BFA25GEN-G056-Weekday-00_079100_G..S14R":"G","BFA25GEN-F049-Sunday-00_061550_F..S69R":"F","BFA25GEN-N101-Weekday-00_063000_N..N33R":"N","BFA25GEN-FS013-Sunday-00_028000_FS.S01R":"Sf","L0S1-J-1056-S12_054100_J..S13R":"J","AFA25GEN-6031-Sunday-00_086650_6..N01R":"6","BFA25GEN-E077-Weekday-00_127900_E..S69R":"E","BFA25GEN-Q071-Weekday-00_053950_Q..N36R":"Q","AFA25GEN-7024-Saturday-00_105050_7..S35R":"7","AFA25GEN-7026-Sunday-00_077150_7..N97R":"7","BFA25GEN-Q071-Weekday-00_070800_Q..N36R":"Q","L0S1-R-1096-S02_072300_R..N93R":"R","AFA25GEN-6031-Sunday-00_068150_6..S01R":"6","BFA25GEN-H043-Weekday-00_093850_H..S21R":"Sr","AFA25GEN-1093-Weekday-00_129500_1..S03R":"1","AFA25GEN-4104-Weekday-00_107650_4..N06R":"4","BFA25GEN-E043-Saturday-00_100100_E..S69R":"E","BFA25GEN-N101-Weekday-00_111600_N..S34R":"N","AFA25GEN-5049-Sunday-00_012300_5..N32R":"5","AFA25GEN-7024-Saturday-00_040700_7..S35R":"7","L0S3-3-3044-S400_014500_3..N90R":"3","AFA25GEN-2042-Saturday-00_091200_2..S01R":"2","BFA25GEN-C028-Sunday-00_072600_C..S04R":"C","L0S1-R-1096-S02_044000_R..N93R":"R","AFA25GEN-2042-Saturday-00_100800_2..S01R":"2","BFA25GEN-E077-Weekday-00_066350_E..N66R":"E","AFA25GEN-6091-Weekday-00_104550_6..N02R":"6X","AFA25GEN-7064-Weekday-00_014000_7..S35R":"7","L0S2-J-2034-S21_033550_J..N41R":"J","L0S2-J-2034-S21_070200_J..S12R":"J","BFA25GEN-Q071-Weekday-00_053550_Q..S36R":"Q","BFA25GEN-N101-Weekday-00_136250_N..N20R":"N","L0S2-R-2053-S22_108600_R..S71R":"R","BFA25GEN-A047-Saturday-00_142200_A..S74R":"A","AFA25GEN-2042-Saturday-00_092900_2..S01R":"2","BFA25GEN-L027-Saturday-00_135900_L..N01R":"L","AFA25GEN-4104-Weekday-00_059350_4..N43R":"4","AFA25GEN-7024-Saturday-00_045700_7..N97R":"7","AFA25GEN-2048-Sunday-00_107450_2..S01R":"2","AFA25GEN-6034-Saturday-00_066150_6..S01R":"6","BFA25GEN-C028-Sunday-00_096000_C..N04R":"C","L0S3-D-3043-S22_092450_D..N07R":"D","BFA25GEN-FS012-Saturday-00_123150_FS.S01R":"Sf","BFA25GEN-Q024-Sunday-00_115650_Q..N16R":"Q","AFA25GEN-GS013-Saturday-00_077400_GS.S01R":"S","BFA25GEN-F049-Sunday-00_042000_F..N65R":"F","BFA25GEN-FS012-Weekday-00_099100_FS.N01R":"Sf","L0S1-R-1096-S02_051550_R..N93R":"R","L0S2-J-2034-S21_021550_J..N41R":"J","AFA25GEN-7026-Sunday-00_027650_7..N97R":"7","BFA25GEN-E077-Weekday-00_056700_E..S71R":"E","BFA25GEN-H027-Saturday-00_117100_H..S21R":"Sr","BFA25GEN-Q071-Weekday-00_146100_Q..N39R":"Q","AFA25GEN-GS013-Saturday-00_051900_GS.S04R":"S","L0S2-D-2041-S02_069650_D..N07R":"D","BFA25GEN-G056-Weekday-00_066450_G..N14R":"G","L0S1-J-1056-S12_048650_J..S15R":"J","AFA25GEN-7064-Weekday-00_108550_7..N97R":"7","AFA25GEN-7024-Saturday-00_042700_7..S35R":"7","BFA25GEN-Q071-Weekday-00_037050_Q..N36R":"Q","AFA25GEN-6034-Saturday-00_070150_6..N01R":"6","L0S2-N-2057-S05_029700_N..N20R":"N","L0S3-R-3052-S23_014600_R..N27R":"R","L0S1-D-1084-S02_068700_D..N07R":"D","BFA25GEN-H043-Weekday-00_019150_H..S21R":"Sr","BFA25GEN-E077-Weekday-00_096650_E..N66R":"E","BFA25GEN-Q022-Saturday-00_088900_Q..S16R":"Q","BFA25GEN-A087-Weekday-00_127600_A..N54R":"A","L0S1-D-1084-S02_059550_D..S07R":"D","L0S2-D-2041-S02_109750_D..S07R":"D","AFA25GEN-7064-Weekday-00_128000_7..S35R":"7","AFA25GEN-5049-Sunday-00_110900_5..S08R":"5","AFA25GEN-5044-Saturday-00_066650_5..S08R":"5","BFA25GEN-FS012-Weekday-00_020000_FS.S01R":"Sf","BFA25GEN-L053-Weekday-00_136950_L..S01R":"L","BFA25GEN-L027-Saturday-00_134200_L..N01R":"L","BFA25GEN-A047-Saturday-00_143000_A..N37R":"A","L0S3-N-3060-S06_074650_N..N34R":"N","AFA25GEN-GS022-Weekday-00_101200_GS.S04R":"S","AFA25GEN-6091-Weekday-00_013250_6..N01R":"6","BFA25GEN-L027-Sunday-00_142250_L..N01R":"L","L0S1-D-1084-S02_097700_D..N14R":"D","AFA25GEN-2048-Sunday-00_140200_2..N01R":"2","L0S1-F-1080-S100_137600_F..S20R":"F","AFA25GEN-4049-Sunday-00_116250_4..S06R":"4","AFA25GEN-5044-Saturday-00_103450_5..S08R":"5","BFA25GEN-FS013-Sunday-00_018000_FS.S01R":"Sf","BFA25GEN-H043-Weekday-00_053350_H..S21R":"Sr","AFA25GEN-5044-Saturday-00_074650_5..S08R":"5","BFA25GEN-E077-Weekday-00_090500_E..S71R":"E","AFA25GEN-6091-Weekday-00_048500_6..S08R":"6X","BFA25GEN-C028-Sunday-00_117000_C..S04R":"C","AFA25GEN-1093-Weekday-00_027450_1..N03R":"1","AFA25GEN-1093-Weekday-00_095900_1..S11R":"1","AFA25GEN-7064-Weekday-00_104550_7..N98R":"7","AFA25GEN-4049-Sunday-00_010850_4..N13R":"4","AFA25GEN-GS013-Saturday-00_129400_GS.S01R":"S","BFA25GEN-FS012-Saturday-00_135000_FS.S01R":"Sf","AFA25GEN-7026-Sunday-00_006000_7..S35R":"7","BFA25GEN-Q022-Saturday-00_057550_Q..N16R":"Q","AFA25GEN-2100-Weekday-00_070850_2..S01R":"2","AFA25GEN-7064-Weekday-00_126400_7..N26R":"7X","L0S1-F-1080-S100_102150_F..N79R":"F","BFA25GEN-C026-Saturday-00_046400_C..S04R":"C","BFA25GEN-L053-Weekday-00_082250_L..S01R":"L","AFA25GEN-4049-Sunday-00_066050_4..S06R":"4","AFA25GEN-GS022-Weekday-00_052900_GS.N04R":"S","AFA25GEN-6091-Weekday-00_093400_6..S01R":"6","L0S3-N-3060-S06_035850_N..S27R":"N","AFA25GEN-6034-Saturday-00_066550_6..N01R":"6","BFA25GEN-N101-Weekday-00_113350_N..N31R":"N","L0S3-R-3052-S23_061800_R..S71R":"R","L0S2-3-2042-S400_046400_3..S01R":"3","BFA25GEN-A087-Weekday-00_001150_A..S74R":"A","AFA25GEN-1039-Saturday-00_147900_1..N03R":"1","AFA25GEN-7024-Saturday-00_069900_7..S35R":"7","BFA25GEN-A087-Weekday-00_069500_A..S57R":"A","AFA25GEN-1093-Weekday-00_098550_1..S03R":"1","L0S3-R-3052-S23_100200_R..S71R":"R","AFA25GEN-2100-Weekday-00_044300_2..N03R":"2","AFA25GEN-6091-Weekday-00_005950_6..S01R":"6","BFA25GEN-L027-Sunday-00_086400_L..S01R":"L","AFA25GEN-4043-Saturday-00_074050_4..S06R":"4","AFA25GEN-6091-Weekday-00_072200_6..N03R":"6","AFA25GEN-7026-Sunday-00_024000_7..S35R":"7","BFA25GEN-E077-Weekday-00_083300_E..S71R":"E","SIR-FA2017-SI017-Weekday-08_075600_SI..S03R":"Si","AFA25GEN-2100-Weekday-00_102500_2..S01R":"2","BFA25GEN-A047-Saturday-00_053950_A..S57R":"A","BFA25GEN-E077-Weekday-00_115850_E..N57R":"E","AFA25GEN-4104-Weekday-00_118650_4..S06R":"4","AFA25GEN-7024-Saturday-00_136600_7..S35R":"7","L0S3-3-3044-S400_110800_3..N01R":"3","L0S1-F-1080-S100_099750_F..N79R":"F","L0S1-M-1093-S100_030200_M..S30R":"M","SIR-FA2017-SI017-Sunday-00_108600_SI..S03R":"Si","BFA25GEN-L027-Sunday-00_006600_L..S01R":"L","SIR-FA2017-SI017-Saturday-00_105100_SI..N03R":"Si","BFA25GEN-B087-Weekday-00_089950_B..S65R":"B","BFA25GEN-N101-Weekday-00_131250_N..N72R":"W","AFA25GEN-1093-Weekday-00_107350_1..S03R":"1","L0S3-D-3043-S22_048550_D..S07R":"D","BFA25GEN-G056-Weekday-00_079900_G..S14R":"G","BFA25GEN-M028-Saturday-00_040350_M..S37R":"M","AFA25GEN-2042-Saturday-00_128200_2..S01R":"2","BFA25GEN-L053-Weekday-00_062550_L..S01R":"L","BFA25GEN-F045-Saturday-00_156150_F..N07R":"F","L0S1-3-1093-S400_079450_3..S01R":"3","BFA25GEN-FS012-Weekday-00_087150_FS.S01R":"Sf","AFA25GEN-5044-Saturday-00_091950_5..S08R":"5","BFA25GEN-A047-Saturday-00_008650_A..S43R":"A","AFA25GEN-1093-Weekday-00_058400_1..S03R":"1","L0S2-D-2041-S02_129650_D..N07R":"D","AFA25GEN-6091-Weekday-00_043600_6..N03R":"6","AFA25GEN-6034-Saturday-00_143100_6..N01R":"6","L0S1-F-1080-S100_116300_F..S78R":"F","BFA25GEN-A087-Weekday-00_110800_A..N54R":"A","L0S2-D-2041-S02_034550_D..S05R":"D","L0S1-3-1093-S400_018550_3..N90R":"3","L0S1-D-1084-S02_057950_D..S07R":"D","SIR-FA2017-SI017-Weekday-08_096100_SI..S07R":"Si","BFA25GEN-A087-Weekday-00_133150_A..N09R":"A","BFA25GEN-B087-Weekday-00_047350_B..S65R":"B","L0S1-F-1080-S100_096000_F..N81R":"F","BFA25GEN-G038-Saturday-00_076850_G..S16R":"G","BFA25GEN-FS012-Weekday-00_064100_FS.N01R":"Sf","BFA25GEN-FS012-Saturday-00_084150_FS.S01R":"Sf","AFA25GEN-7026-Sunday-00_147850_7..N97R":"7","BFA25GEN-C026-Saturday-00_078800_C..S04R":"C","BFA25GEN-Q024-Sunday-00_087650_Q..N16R":"Q","AFA25GEN-1039-Saturday-00_135150_1..S03R":"1","AFA25GEN-2048-Sunday-00_141200_2..S01R":"2","AFA25GEN-7026-Sunday-00_055950_7..N97R":"7","AFA25GEN-5049-Sunday-00_128550_5..N73R":"5","BFA25GEN-FS012-Weekday-00_045150_FS.S01R":"Sf","L0S3-J-3034-S20_034750_J..S12R":"J","AFA25GEN-4043-Saturday-00_036050_4..N01R":"4","AFA25GEN-GS022-Weekday-00_113450_GS.N01R":"S","L0S1-J-1056-S12_087300_J..S12R":"J","BFA25GEN-FS012-Saturday-00_128550_FS.S01R":"Sf","BFA25GEN-N101-Weekday-00_153700_N..N20R":"N","AFA25GEN-1039-Saturday-00_135500_1..N03R":"1","AFA25GEN-6034-Saturday-00_103150_6..N01R":"6","BFA25GEN-Q071-Weekday-00_043550_Q..S36R":"Q","L0S1-F-1080-S100_111500_F..N81R":"F","L0S1-R-1096-S02_141550_R..S27R":"R","BFA25GEN-Q071-Weekday-00_034250_Q..N36R":"Q","AFA25GEN-7024-Saturday-00_078050_7..N97R":"7","BFA25GEN-FS012-Saturday-00_042150_FS.S01R":"Sf","AFA25GEN-6091-Weekday-00_091000_6..N02R":"6X","L0S1-R-1096-S02_093900_R..S71R":"R","BFA25GEN-L027-Sunday-00_098900_L..N01R":"L","AFA25GEN-6031-Sunday-00_046750_6..N01R":"6","AFA25GEN-1038-Sunday-00_116500_1..N03R":"1","SIR-FA2017-SI017-Weekday-08_075100_SI..N03R":"Si","AFA25GEN-1093-Weekday-00_042550_1..S03R":"1","BFA25GEN-C028-Sunday-00_051000_C..S04R":"C","AFA25GEN-4043-Saturday-00_102800_4..N06R":"4","AFA25GEN-7024-Saturday-00_112250_7..S35R":"7","BFA25GEN-G038-Saturday-00_096850_G..S16R":"G","L0S3-D-3043-S22_102050_D..N07R":"D","AFA25GEN-1038-Sunday-00_062050_1..N03R":"1","BFA25GEN-C059-Weekday-00_104750_C..N04R":"C","SIR-FA2017-SI017-Saturday-00_066600_SI..S03R":"Si","AFA25GEN-2048-Sunday-00_089950_2..S01R":"2","AFA25GEN-5049-Sunday-00_132900_5..S01R":"5","BFA25GEN-E049-Sunday-00_104300_E..S69R":"E","AFA25GEN-5113-Weekday-00_047700_5..S09R":"5","BFA25GEN-M027-Sunday-00_040200_M..S35R":"M","L0S1-R-1096-S02_129850_R..S71R":"R","L0S1-M-1093-S100_114850_M..S24R":"M","AFA25GEN-4049-Sunday-00_062350_4..N06R":"4","BFA25GEN-A087-Weekday-00_100150_A..N54R":"A","BFA25GEN-M028-Saturday-00_006400_M..N30R":"M","AFA25GEN-1093-Weekday-00_088350_1..N03R":"1","AFA25GEN-7026-Sunday-00_052950_7..N97R":"7","L0S2-3-2042-S400_057600_3..N01R":"3","AFA25GEN-1038-Sunday-00_071900_1..N03R":"1","AFA25GEN-7024-Saturday-00_107500_7..N97R":"7","BFA25GEN-A047-Saturday-00_016000_A..N43R":"A","L0S2-3-2042-S400_058700_3..S01R":"3","BFA25GEN-L027-Saturday-00_121800_L..S01R":"L","BFA25GEN-G038-Saturday-00_088850_G..S16R":"G","L0S1-R-1096-S02_071500_R..N93R":"R","BFA25GEN-Q022-Saturday-00_117250_Q..N16R":"Q","AFA25GEN-7064-Weekday-00_075100_7..N97R":"7","BFA25GEN-L027-Sunday-00_089200_L..S01R":"L","BFA25GEN-Q071-Weekday-00_041950_Q..S36R":"Q","AFA25GEN-2042-Saturday-00_140050_2..N01R":"2","L0S3-J-3034-S20_124700_J..S12R":"J","BFA25GEN-L027-Saturday-00_069150_L..S01R":"L","BFA25GEN-G056-Weekday-00_124550_G..N14R":"G","BFA25GEN-L027-Sunday-00_098400